flight_number,flight_date,flight_id,status,airline_code,airline_name,route,origin,destination,leg_status,leg_status_name,departure_airport_code,departure_airport_name,departure_city_code,departure_city_name,departure_country_code,departure_country_name,departure_latitude,departure_longitude,scheduled_departure_time,latest_departure_time,arrival_airport_code,arrival_airport_name,arrival_city_code,arrival_city_name,arrival_country_code,arrival_country_name,arrival_latitude,arrival_longitude,scheduled_arrival_time,latest_arrival_time,estimated_arrival_time,scheduled_duration,completion_percentage,aircraft_type_code,aircraft_type_name,aircraft_owner
807,2025-12-30,20251230+KL+0807,SCHEDULED,KL,KLM ROYAL DUTCH AIRLINES,AMS->TPE->MNL,AMS,MNL,SCHEDULED,Scheduled,AMS,SCHIPHOL AIRPORT,AMS,AMSTERDAM,NL,NETHERLANDS,52.3083,4.7681,2025-12-30T20:15:00.000+01:00,2025-12-30T20:15:00.000+01:00,TPE,TAIWAN TAOYUAN INTERNATIONAL AIRPORT,TPE,TAIPEI,TW,CHINESE TAIPEI,25.0711,121.5436,2025-12-31T15:45:00.000+08:00,2025-12-31T15:45:00.000+08:00,2025-12-31T15:45:00.000+08:00,PT12H30M,0,772,BOEING 777-200/200 ER,KLM ROYAL DUTCH AIRLINES
807,2025-12-30,20251230+KL+0807,SCHEDULED,KL,KLM ROYAL DUTCH AIRLINES,AMS->TPE->MNL,AMS,MNL,SCHEDULED,Scheduled,TPE,TAIWAN TAOYUAN INTERNATIONAL AIRPORT,TPE,TAIPEI,TW,CHINESE TAIPEI,25.0711,121.5436,2025-12-31T17:05:00.000+08:00,2025-12-31T17:05:00.000+08:00,MNL,NINOY AQUINO INTERNATIONAL AIRPORT,MNL,MANILA,PH,PHILIPPINES,14.51,121.0183,2025-12-31T19:30:00.000+08:00,2025-12-31T19:30:00.000+08:00,2025-12-31T19:30:00.000+08:00,PT2H25M,0,772,BOEING 777-200/200 ER,KLM ROYAL DUTCH AIRLINES
809,2025-12-30,20251230+KL+0809,SCHEDULED,KL,KLM ROYAL DUTCH AIRLINES,AMS->KUL->CGK,AMS,CGK,SCHEDULED,Scheduled,AMS,SCHIPHOL AIRPORT,AMS,AMSTERDAM,NL,NETHERLANDS,52.3083,4.7681,2025-12-30T20:30:00.000+01:00,2025-12-30T20:30:00.000+01:00,KUL,KUALA LUMPUR INTERNATIONAL AIRPORT,KUL,KUALA LUMPUR,MY,MALAYSIA,2.7433,101.6933,2025-12-31T15:45:00.000+08:00,2025-12-31T15:45:00.000+08:00,2025-12-31T15:45:00.000+08:00,PT12H15M,0,789,BOEING 787-9,KLM ROYAL DUTCH AIRLINES
809,2025-12-30,20251230+KL+0809,SCHEDULED,KL,KLM ROYAL DUTCH AIRLINES,AMS->KUL->CGK,AMS,CGK,SCHEDULED,Scheduled,KUL,KUALA LUMPUR INTERNATIONAL AIRPORT,KUL,KUALA LUMPUR,MY,MALAYSIA,2.7433,101.6933,2025-12-31T17:05:00.000+08:00,2025-12-31T17:05:00.000+08:00,CGK,SOEKARNO-HATTA INTERNATIONAL AIRPORT,JKT,JAKARTA,ID,INDONESIA,-6.1167,106.65,2025-12-31T18:10:00.000+07:00,2025-12-31T18:10:00.000+07:00,2025-12-31T18:10:00.000+07:00,PT2H5M,0,789,BOEING 787-9,KLM ROYAL DUTCH AIRLINES
835,2025-12-30,20251230+KL+0835,SCHEDULED,KL,KLM ROYAL DUTCH AIRLINES,AMS->SIN->DPS,AMS,DPS,SCHEDULED,Scheduled,AMS,SCHIPHOL AIRPORT,AMS,AMSTERDAM,NL,NETHERLANDS,52.3083,4.7681,2025-12-30T20:50:00.000+01:00,2025-12-30T20:50:00.000+01:00,SIN,CHANGI AIRPORT,SIN,SINGAPORE,SG,SINGAPORE,1.3581,103.9106,2025-12-31T16:15:00.000+08:00,2025-12-31T16:15:00.000+08:00,2025-12-31T16:15:00.000+08:00,PT12H25M,0,77W,BOEING 777-300ER,KLM ROYAL DUTCH AIRLINES
835,2025-12-30,20251230+KL+0835,SCHEDULED,KL,KLM ROYAL DUTCH AIRLINES,AMS->SIN->DPS,AMS,DPS,SCHEDULED,Scheduled,SIN,CHANGI AIRPORT,SIN,SINGAPORE,SG,SINGAPORE,1.3581,103.9106,2025-12-31T17:35:00.000+08:00,2025-12-31T17:35:00.000+08:00,DPS,NGURAH RAI AIRPORT,DPS,DENPASAR-BALI,ID,INDONESIA,-8.7486,115.165,2025-12-31T20:20:00.000+08:00,2025-12-31T20:20:00.000+08:00,2025-12-31T20:20:00.000+08:00,PT2H45M,0,77W,BOEING 777-300ER,KLM ROYAL DUTCH AIRLINES
2,2025-12-30,20251230+QF+0002,SCHEDULED,QF,QANTAS AIRWAYS LTD,LHR->SIN->SYD,LHR,SYD,SCHEDULED,Scheduled,LHR,HEATHROW AIRPORT,LON,LONDON,GB,UNITED KINGDOM,51.4714,-0.4528,2025-12-30T20:10:00.000Z,2025-12-30T20:10:00.000Z,SIN,CHANGI AIRPORT,SIN,SINGAPORE,SG,SINGAPORE,1.3581,103.9106,2025-12-31T17:40:00.000+08:00,2025-12-31T17:40:00.000+08:00,2025-12-31T17:40:00.000+08:00,PT13H30M,0,388,AIRBUS A380-800 PASSENGER,QANTAS AIRWAYS LTD
2,2025-12-30,20251230+QF+0002,SCHEDULED,QF,QANTAS AIRWAYS LTD,LHR->SIN->SYD,LHR,SYD,SCHEDULED,Scheduled,SIN,CHANGI AIRPORT,SIN,SINGAPORE,SG,SINGAPORE,1.3581,103.9106,2025-12-31T19:40:00.000+08:00,2025-12-31T19:40:00.000+08:00,SYD,KINGSFORD SMITH AIRPORT,SYD,SYDNEY,AU,AUSTRALIA,-33.9442,151.1758,2026-01-01T06:30:00.000+11:00,2026-01-01T06:30:00.000+11:00,2026-01-01T06:30:00.000+11:00,PT7H50M,0,388,AIRBUS A380-800 PASSENGER,QANTAS AIRWAYS LTD
701,2025-12-30,20251230+KL+0701,SCHEDULED,KL,KLM ROYAL DUTCH AIRLINES,AMS->EZE->SCL,AMS,SCL,SCHEDULED,Scheduled,AMS,SCHIPHOL AIRPORT,AMS,AMSTERDAM,NL,NETHERLANDS,52.3083,4.7681,2025-12-30T21:20:00.000+01:00,2025-12-30T21:20:00.000+01:00,EZE,MINISTRO PISTARINI AIRPORT,BUE,BUENOS AIRES,AR,ARGENTINA,-34.82,-58.5339,2025-12-31T07:15:00.000-03:00,2025-12-31T07:15:00.000-03:00,2025-12-31T07:15:00.000-03:00,PT13H55M,0,789,BOEING 787-9,KLM ROYAL DUTCH AIRLINES
701,2025-12-30,20251230+KL+0701,SCHEDULED,KL,KLM ROYAL DUTCH AIRLINES,AMS->EZE->SCL,AMS,SCL,SCHEDULED,Scheduled,EZE,MINISTRO PISTARINI AIRPORT,BUE,BUENOS AIRES,AR,ARGENTINA,-34.82,-58.5339,2025-12-31T08:55:00.000-03:00,2025-12-31T08:55:00.000-03:00,SCL,ARTURO MERINO BENITEZ AIRPORT,SCL,SANTIAGO,CL,CHILE,-33.3833,-70.7833,2025-12-31T11:10:00.000-03:00,2025-12-31T11:10:00.000-03:00,2025-12-31T11:10:00.000-03:00,PT2H15M,0,789,BOEING 787-9,KLM ROYAL DUTCH AIRLINES
3918,2025-12-31,20251231+DL+3918,SCHEDULED,DL,DELTA AIR LINES INC.,SEA->PDX->SEA,SEA,SEA,CANCELLED,Cancelled,MKE,GENERAL MITCHELL INTERNATIONAL AIRPORT,MKE,MILWAUKEE,US,UNITED STATES,42.9503,-87.8972,2025-12-31T09:30:00.000-06:00,2025-12-31T09:30:00.000-06:00,DTW,METROPOLITAN WAYNE COUNTY AIRPORT,DTT,DETROIT,US,UNITED STATES,42.2186,-83.3486,2025-12-31T11:40:00.000-05:00,2025-12-31T11:40:00.000-05:00,2025-12-31T11:40:00.000-05:00,PT1H10M,0,CR9,CANADAIR REGIONAL JET 900 AND CHALLENGER 890,SKYWEST AIRLINES
3918,2025-12-31,20251231+DL+3918,SCHEDULED,DL,DELTA AIR LINES INC.,SEA->PDX->SEA,SEA,SEA,CANCELLED,Cancelled,DTW,METROPOLITAN WAYNE COUNTY AIRPORT,DTT,DETROIT,US,UNITED STATES,42.2186,-83.3486,2025-12-31T08:25:00.000-05:00,2025-12-31T08:25:00.000-05:00,MKE,GENERAL MITCHELL INTERNATIONAL AIRPORT,MKE,MILWAUKEE,US,UNITED STATES,42.9503,-87.8972,2025-12-31T08:45:00.000-06:00,2025-12-31T08:45:00.000-06:00,2025-12-31T08:45:00.000-06:00,PT1H20M,0,CR9,CANADAIR REGIONAL JET 900 AND CHALLENGER 890,SKYWEST AIRLINES
3918,2025-12-31,20251231+DL+3918,SCHEDULED,DL,DELTA AIR LINES INC.,SEA->PDX->SEA,SEA,SEA,SCHEDULED,Scheduled,SEA,SEATTLE-TACOMA INTERNATIONAL AIRPORT,SEA,SEATTLE,US,UNITED STATES,47.4472,-122.3056,2025-12-30T16:05:00.000-08:00,2025-12-30T16:05:00.000-08:00,PDX,PORTLAND INTERNATIONAL AIRPORT,PDX,PORTLAND,US,UNITED STATES,45.5892,-122.595,2025-12-30T17:07:00.000-08:00,2025-12-30T17:07:00.000-08:00,2025-12-30T17:07:00.000-08:00,PT1H2M,0,E7W,EMBRAER 175 (ENHANCED WINGLETS),SKYWEST AIRLINES
3918,2025-12-31,20251231+DL+3918,SCHEDULED,DL,DELTA AIR LINES INC.,SEA->PDX->SEA,SEA,SEA,SCHEDULED,Scheduled,PDX,PORTLAND INTERNATIONAL AIRPORT,PDX,PORTLAND,US,UNITED STATES,45.5892,-122.595,2025-12-30T17:45:00.000-08:00,2025-12-30T17:45:00.000-08:00,SEA,SEATTLE-TACOMA INTERNATIONAL AIRPORT,SEA,SEATTLE,US,UNITED STATES,47.4472,-122.3056,2025-12-30T18:48:00.000-08:00,2025-12-30T18:48:00.000-08:00,2025-12-30T18:48:00.000-08:00,PT1H3M,0,E7W,EMBRAER 175 (ENHANCED WINGLETS),SKYWEST AIRLINES
2059,2025-12-31,20251231+DL+2059,SCHEDULED,DL,DELTA AIR LINES INC.,BNA->ATL,BNA,ATL,CANCELLED,Cancelled,MSP,MINNEAPOLIS INTERNATIONAL AIRPORT,MSP,MINNEAPOLIS/ST PAUL,US,UNITED STATES,44.8861,-93.2178,2025-12-31T07:00:00.000-06:00,2025-12-31T07:00:00.000-06:00,CLE,HOPKINS INTERNATIONAL AIRPORT,CLE,CLEVELAND,US,UNITED STATES,41.4119,-81.8481,2025-12-31T09:55:00.000-05:00,2025-12-31T09:55:00.000-05:00,2025-12-31T09:55:00.000-05:00,PT1H55M,0,717,BOEING 717-200,DELTA AIR LINES INC.
2059,2025-12-31,20251231+DL+2059,SCHEDULED,DL,DELTA AIR LINES INC.,BNA->ATL,BNA,ATL,CANCELLED,Cancelled,CLE,HOPKINS INTERNATIONAL AIRPORT,CLE,CLEVELAND,US,UNITED STATES,41.4119,-81.8481,2025-12-31T11:00:00.000-05:00,2025-12-31T11:00:00.000-05:00,MSP,MINNEAPOLIS INTERNATIONAL AIRPORT,MSP,MINNEAPOLIS/ST PAUL,US,UNITED STATES,44.8861,-93.2178,2025-12-31T12:04:00.000-06:00,2025-12-31T12:04:00.000-06:00,2025-12-31T12:04:00.000-06:00,PT2H4M,0,717,BOEING 717-200,DELTA AIR LINES INC.
2059,2025-12-31,20251231+DL+2059,SCHEDULED,DL,DELTA AIR LINES INC.,BNA->ATL,BNA,ATL,SCHEDULED,Scheduled,BNA,NASHVILLE INTERNATIONAL AIRPORT,BNA,NASHVILLE,US,UNITED STATES,36.1267,-86.6819,2025-12-30T18:06:00.000-06:00,2025-12-30T18:06:00.000-06:00,ATL,HARTSFIELD-JACKSON INTERNATIONAL AIRPORT,ATL,ATLANTA,US,UNITED STATES,33.6408,-84.4272,2025-12-30T20:19:00.000-05:00,2025-12-30T20:19:00.000-05:00,2025-12-30T20:19:00.000-05:00,PT1H13M,0,717,BOEING 717-200,DELTA AIR LINES INC.
674,2025-12-31,20251231+DL+0674,SCHEDULED,DL,DELTA AIR LINES INC.,SLC->SNA->SLC,SLC,SLC,CANCELLED,Cancelled,MSP,MINNEAPOLIS INTERNATIONAL AIRPORT,MSP,MINNEAPOLIS/ST PAUL,US,UNITED STATES,44.8861,-93.2178,2025-12-30T20:25:00.000-06:00,2025-12-30T20:25:00.000-06:00,IND,INDIANAPOLIS INTERNATIONAL AIRPORT,IND,INDIANAPOLIS,US,UNITED STATES,39.7289,-86.2817,2025-12-30T23:01:00.000-05:00,2025-12-30T23:01:00.000-05:00,2025-12-30T23:01:00.000-05:00,PT1H36M,0,739,BOEING 737-900 PASSENGER,DELTA AIR LINES INC.
674,2025-12-31,20251231+DL+0674,SCHEDULED,DL,DELTA AIR LINES INC.,SLC->SNA->SLC,SLC,SLC,CANCELLED,Cancelled,MSP,MINNEAPOLIS INTERNATIONAL AIRPORT,MSP,MINNEAPOLIS/ST PAUL,US,UNITED STATES,44.8861,-93.2178,2025-12-31T12:45:00.000-06:00,2025-12-31T12:45:00.000-06:00,CLT,DOUGLAS INTERNATIONAL AIRPORT,CLT,CHARLOTTE,US,UNITED STATES,35.2192,-80.9358,2025-12-31T16:18:00.000-05:00,2025-12-31T16:18:00.000-05:00,2025-12-31T16:18:00.000-05:00,PT2H33M,0,717,BOEING 717-200,DELTA AIR LINES INC.
674,2025-12-31,20251231+DL+0674,SCHEDULED,DL,DELTA AIR LINES INC.,SLC->SNA->SLC,SLC,SLC,CANCELLED,Cancelled,CLT,DOUGLAS INTERNATIONAL AIRPORT,CLT,CHARLOTTE,US,UNITED STATES,35.2192,-80.9358,2025-12-31T16:55:00.000-05:00,2025-12-31T16:55:00.000-05:00,MSP,MINNEAPOLIS INTERNATIONAL AIRPORT,MSP,MINNEAPOLIS/ST PAUL,US,UNITED STATES,44.8861,-93.2178,2025-12-31T18:54:00.000-06:00,2025-12-31T18:54:00.000-06:00,2025-12-31T18:54:00.000-06:00,PT2H59M,0,717,BOEING 717-200,DELTA AIR LINES INC.
674,2025-12-31,20251231+DL+0674,SCHEDULED,DL,DELTA AIR LINES INC.,SLC->SNA->SLC,SLC,SLC,SCHEDULED,Scheduled,SLC,SALT LAKE CITY INTERNATIONAL AIRPORT,SLC,SALT LAKE CITY,US,UNITED STATES,40.7842,-111.9669,2025-12-30T17:10:00.000-07:00,2025-12-30T17:10:00.000-07:00,SNA,JOHN WAYNE AIRPORT,SNA,SANTA ANA,US,UNITED STATES,33.6756,-117.8669,2025-12-30T18:13:00.000-08:00,2025-12-30T18:13:00.000-08:00,2025-12-30T18:13:00.000-08:00,PT2H3M,0,221,AIRBUS A220-100 PASSENGER,DELTA AIR LINES INC.
674,2025-12-31,20251231+DL+0674,SCHEDULED,DL,DELTA AIR LINES INC.,SLC->SNA->SLC,SLC,SLC,SCHEDULED,Scheduled,SNA,JOHN WAYNE AIRPORT,SNA,SANTA ANA,US,UNITED STATES,33.6756,-117.8669,2025-12-30T19:05:00.000-08:00,2025-12-30T19:05:00.000-08:00,SLC,SALT LAKE CITY INTERNATIONAL AIRPORT,SLC,SALT LAKE CITY,US,UNITED STATES,40.7842,-111.9669,2025-12-30T22:03:00.000-07:00,2025-12-30T22:03:00.000-07:00,2025-12-30T22:03:00.000-07:00,PT1H58M,0,221,AIRBUS A220-100 PASSENGER,DELTA AIR LINES INC.
1085,2025-12-31,20251231+DL+1085,SCHEDULED,DL,DELTA AIR LINES INC.,SLC->SFO->SLC,SLC,SLC,CANCELLED,Cancelled,GSO,PIEDMONT TRIAD INTERNATIONAL AIRPORT,GSO,GREENSBORO/HIGH POINT,US,UNITED STATES,36.0919,-79.9428,2025-12-31T08:20:00.000-05:00,2025-12-31T08:20:00.000-05:00,ATL,HARTSFIELD-JACKSON INTERNATIONAL AIRPORT,ATL,ATLANTA,US,UNITED STATES,33.6408,-84.4272,2025-12-31T09:47:00.000-05:00,2025-12-31T09:47:00.000-05:00,2025-12-31T09:47:00.000-05:00,PT1H27M,0,717,BOEING 717-200,DELTA AIR LINES INC.
1085,2025-12-31,20251231+DL+1085,SCHEDULED,DL,DELTA AIR LINES INC.,SLC->SFO->SLC,SLC,SLC,SCHEDULED,Scheduled,SLC,SALT LAKE CITY INTERNATIONAL AIRPORT,SLC,SALT LAKE CITY,US,UNITED STATES,40.7842,-111.9669,2025-12-30T17:10:00.000-07:00,2025-12-30T17:10:00.000-07:00,SFO,SAN FRANCISCO INTERNATIONAL AIRPORT,SFO,SAN FRANCISCO,US,UNITED STATES,37.6194,-122.3728,2025-12-30T18:18:00.000-08:00,2025-12-30T18:18:00.000-08:00,2025-12-30T18:18:00.000-08:00,PT2H8M,0,319,AIRBUS A319,DELTA AIR LINES INC.
1085,2025-12-31,20251231+DL+1085,SCHEDULED,DL,DELTA AIR LINES INC.,SLC->SFO->SLC,SLC,SLC,SCHEDULED,Scheduled,SFO,SAN FRANCISCO INTERNATIONAL AIRPORT,SFO,SAN FRANCISCO,US,UNITED STATES,37.6194,-122.3728,2025-12-30T19:17:00.000-08:00,2025-12-30T19:17:00.000-08:00,SLC,SALT LAKE CITY INTERNATIONAL AIRPORT,SLC,SALT LAKE CITY,US,UNITED STATES,40.7842,-111.9669,2025-12-30T22:15:00.000-07:00,2025-12-30T22:15:00.000-07:00,2025-12-30T22:15:00.000-07:00,PT1H58M,0,319,AIRBUS A319,DELTA AIR LINES INC.
3842,2025-12-31,20251231+DL+3842,SCHEDULED,DL,DELTA AIR LINES INC.,SLC->JAC,SLC,JAC,CANCELLED,Cancelled,LAX,LOS ANGELES INTERNATIONAL AIRPORT,LAX,LOS ANGELES,US,UNITED STATES,33.9422,-118.4072,2025-12-31T13:35:00.000-08:00,2025-12-31T13:35:00.000-08:00,SJC,SAN JOSE INTERNATIONAL AIRPORT,SJC,SAN JOSE,US,UNITED STATES,37.3611,-121.9256,2025-12-31T14:51:00.000-08:00,2025-12-31T14:51:00.000-08:00,2025-12-31T14:51:00.000-08:00,PT1H16M,0,E7W,EMBRAER 175 (ENHANCED WINGLETS),SKYWEST AIRLINES
3842,2025-12-31,20251231+DL+3842,SCHEDULED,DL,DELTA AIR LINES INC.,SLC->JAC,SLC,JAC,CANCELLED,Cancelled,SJC,SAN JOSE INTERNATIONAL AIRPORT,SJC,SAN JOSE,US,UNITED STATES,37.3611,-121.9256,2025-12-31T15:45:00.000-08:00,2025-12-31T15:45:00.000-08:00,LAX,LOS ANGELES INTERNATIONAL AIRPORT,LAX,LOS ANGELES,US,UNITED STATES,33.9422,-118.4072,2025-12-31T17:14:00.000-08:00,2025-12-31T17:14:00.000-08:00,2025-12-31T17:14:00.000-08:00,PT1H29M,0,E7W,EMBRAER 175 (ENHANCED WINGLETS),SKYWEST AIRLINES
3842,2025-12-31,20251231+DL+3842,SCHEDULED,DL,DELTA AIR LINES INC.,SLC->JAC,SLC,JAC,CANCELLED,Cancelled,YVR,VANCOUVER INTERNATIONAL AIRPORT,YVR,VANCOUVER,CA,CANADA,49.1872,-123.1853,2025-12-31T15:50:00.000-08:00,2025-12-31T15:50:00.000-08:00,SEA,SEATTLE-TACOMA INTERNATIONAL AIRPORT,SEA,SEATTLE,US,UNITED STATES,47.4472,-122.3056,2025-12-31T16:59:00.000-08:00,2025-12-31T16:59:00.000-08:00,2025-12-31T16:59:00.000-08:00,PT1H9M,0,E7W,EMBRAER 175 (ENHANCED WINGLETS),SKYWEST AIRLINES
3842,2025-12-31,20251231+DL+3842,SCHEDULED,DL,DELTA AIR LINES INC.,SLC->JAC,SLC,JAC,SCHEDULED,Scheduled,SLC,SALT LAKE CITY INTERNATIONAL AIRPORT,SLC,SALT LAKE CITY,US,UNITED STATES,40.7842,-111.9669,2025-12-30T17:10:00.000-07:00,2025-12-30T17:10:00.000-07:00,JAC,JACKSON HOLE AIRPORT,JAC,JACKSON,US,UNITED STATES,43.6067,-110.7369,2025-12-30T18:19:00.000-07:00,2025-12-30T18:19:00.000-07:00,2025-12-30T18:19:00.000-07:00,PT1H9M,0,E7W,EMBRAER 175 (ENHANCED WINGLETS),SKYWEST AIRLINES
5041,2025-12-31,20251231+DL+5041,SCHEDULED,DL,DELTA AIR LINES INC.,MSP->ICT,MSP,ICT,CANCELLED,Cancelled,DTW,METROPOLITAN WAYNE COUNTY AIRPORT,DTT,DETROIT,US,UNITED STATES,42.2186,-83.3486,2025-12-31T10:00:00.000-05:00,2025-12-31T10:00:00.000-05:00,JFK,JOHN F. KENNEDY INTERNATIONAL AIRPORT,NYC,NEW YORK,US,UNITED STATES,40.6386,-73.7769,2025-12-31T12:00:00.000-05:00,2025-12-31T12:00:00.000-05:00,2025-12-31T12:00:00.000-05:00,PT2H,0,CR9,CANADAIR REGIONAL JET 900 AND CHALLENGER 890,ENDEAVOR AIR
5041,2025-12-31,20251231+DL+5041,SCHEDULED,DL,DELTA AIR LINES INC.,MSP->ICT,MSP,ICT,SCHEDULED,Scheduled,MSP,MINNEAPOLIS INTERNATIONAL AIRPORT,MSP,MINNEAPOLIS/ST PAUL,US,UNITED STATES,44.8861,-93.2178,2025-12-30T18:10:00.000-06:00,2025-12-30T18:10:00.000-06:00,ICT,DWIGHT D. EISENHOWER AIRPORT,ICT,WICHITA,US,UNITED STATES,37.6525,-97.4283,2025-12-30T19:57:00.000-06:00,2025-12-30T19:57:00.000-06:00,2025-12-30T19:57:00.000-06:00,PT1H47M,0,CR9,CANADAIR REGIONAL JET 900 AND CHALLENGER 890,ENDEAVOR AIR
559,2025-12-31,20251231+DL+0559,SCHEDULED,DL,DELTA AIR LINES INC.,MIA->LAX,MIA,LAX,CANCELLED,Cancelled,AUS,AUSTIN-BERGSTROM INTERNATIONAL AIRPORT,AUS,AUSTIN,US,UNITED STATES,30.2,-97.6667,2025-12-31T09:15:00.000-06:00,2025-12-31T09:15:00.000-06:00,DTW,METROPOLITAN WAYNE COUNTY AIRPORT,DTT,DETROIT,US,UNITED STATES,42.2186,-83.3486,2025-12-31T13:15:00.000-05:00,2025-12-31T13:15:00.000-05:00,2025-12-31T13:15:00.000-05:00,PT3H,0,319,AIRBUS A319,DELTA AIR LINES INC.
559,2025-12-31,20251231+DL+0559,SCHEDULED,DL,DELTA AIR LINES INC.,MIA->LAX,MIA,LAX,SCHEDULED,Scheduled,MIA,MIAMI INTERNATIONAL AIRPORT,MIA,MIAMI,US,UNITED STATES,25.7925,-80.2861,2025-12-30T19:15:00.000-05:00,2025-12-30T19:15:00.000-05:00,LAX,LOS ANGELES INTERNATIONAL AIRPORT,LAX,LOS ANGELES,US,UNITED STATES,33.9422,-118.4072,2025-12-30T22:09:00.000-08:00,2025-12-30T22:09:00.000-08:00,2025-12-30T22:09:00.000-08:00,PT5H54M,0,739,BOEING 737-900 PASSENGER,DELTA AIR LINES INC.
1359,2025-12-31,20251231+DL+1359,SCHEDULED,DL,DELTA AIR LINES INC.,ATL->PIT,ATL,PIT,CANCELLED,Cancelled,ECP,NW FLORIDA BEACHES INTERNATIONAL AIRPORT,ECP,PANAMA CITY,US,UNITED STATES,30.3578,-85.7989,2025-12-31T13:30:00.000-06:00,2025-12-31T13:30:00.000-06:00,ATL,HARTSFIELD-JACKSON INTERNATIONAL AIRPORT,ATL,ATLANTA,US,UNITED STATES,33.6408,-84.4272,2025-12-31T15:42:00.000-05:00,2025-12-31T15:42:00.000-05:00,2025-12-31T15:42:00.000-05:00,PT1H12M,0,717,BOEING 717-200,DELTA AIR LINES INC.
1359,2025-12-31,20251231+DL+1359,SCHEDULED,DL,DELTA AIR LINES INC.,ATL->PIT,ATL,PIT,CANCELLED,Cancelled,SLC,SALT LAKE CITY INTERNATIONAL AIRPORT,SLC,SALT LAKE CITY,US,UNITED STATES,40.7842,-111.9669,2025-12-30T17:15:00.000-07:00,2025-12-30T17:15:00.000-07:00,MCI,KANSAS CITY INTERNATIONAL AIRPORT,MKC,KANSAS CITY,US,UNITED STATES,39.2928,-94.7267,2025-12-30T20:42:00.000-06:00,2025-12-30T20:42:00.000-06:00,2025-12-30T20:42:00.000-06:00,PT2H27M,0,223,AIRBUS A220-300 PASSENGER,DELTA AIR LINES INC.
1359,2025-12-31,20251231+DL+1359,SCHEDULED,DL,DELTA AIR LINES INC.,ATL->PIT,ATL,PIT,CANCELLED,Cancelled,ATL,HARTSFIELD-JACKSON INTERNATIONAL AIRPORT,ATL,ATLANTA,US,UNITED STATES,33.6408,-84.4272,2025-12-31T12:35:00.000-05:00,2025-12-31T12:35:00.000-05:00,ECP,NW FLORIDA BEACHES INTERNATIONAL AIRPORT,ECP,PANAMA CITY,US,UNITED STATES,30.3578,-85.7989,2025-12-31T12:38:00.000-06:00,2025-12-31T12:38:00.000-06:00,2025-12-31T12:38:00.000-06:00,PT1H3M,0,717,BOEING 717-200,DELTA AIR LINES INC.
1359,2025-12-31,20251231+DL+1359,SCHEDULED,DL,DELTA AIR LINES INC.,ATL->PIT,ATL,PIT,SCHEDULED,Scheduled,ATL,HARTSFIELD-JACKSON INTERNATIONAL AIRPORT,ATL,ATLANTA,US,UNITED STATES,33.6408,-84.4272,2025-12-30T20:20:00.000-05:00,2025-12-30T20:20:00.000-05:00,PIT,PITTSBURGH INTERNATIONAL AIRPORT,PIT,PITTSBURGH,US,UNITED STATES,40.4967,-80.2358,2025-12-30T22:01:00.000-05:00,2025-12-30T22:01:00.000-05:00,2025-12-30T22:01:00.000-05:00,PT1H41M,0,739,BOEING 737-900 PASSENGER,DELTA AIR LINES INC.
1381,2025-12-31,20251231+DL+1381,SCHEDULED,DL,DELTA AIR LINES INC.,ATL->CHS->ATL,ATL,ATL,CANCELLED,Cancelled,GEG,SPOKANE INTERNATIONAL AIRPORT,GEG,SPOKANE,US,UNITED STATES,47.6169,-117.5372,2025-12-30T19:05:00.000-08:00,2025-12-30T19:05:00.000-08:00,SLC,SALT LAKE CITY INTERNATIONAL AIRPORT,SLC,SALT LAKE CITY,US,UNITED STATES,40.7842,-111.9669,2025-12-30T21:51:00.000-07:00,2025-12-30T21:51:00.000-07:00,2025-12-30T21:51:00.000-07:00,PT1H46M,0,223,AIRBUS A220-300 PASSENGER,DELTA AIR LINES INC.
1381,2025-12-31,20251231+DL+1381,SCHEDULED,DL,DELTA AIR LINES INC.,ATL->CHS->ATL,ATL,ATL,CANCELLED,Cancelled,RSW,SOUTHWEST FLORIDA INTERNATIONAL AIRPORT,FMY,FORT MYERS,US,UNITED STATES,26.5333,-81.75,2025-12-31T16:30:00.000-05:00,2025-12-31T16:30:00.000-05:00,MSP,MINNEAPOLIS INTERNATIONAL AIRPORT,MSP,MINNEAPOLIS/ST PAUL,US,UNITED STATES,44.8861,-93.2178,2025-12-31T19:15:00.000-06:00,2025-12-31T19:15:00.000-06:00,2025-12-31T19:15:00.000-06:00,PT3H45M,0,739,BOEING 737-900 PASSENGER,DELTA AIR LINES INC.
1381,2025-12-31,20251231+DL+1381,SCHEDULED,DL,DELTA AIR LINES INC.,ATL->CHS->ATL,ATL,ATL,CANCELLED,Cancelled,MSP,MINNEAPOLIS INTERNATIONAL AIRPORT,MSP,MINNEAPOLIS/ST PAUL,US,UNITED STATES,44.8861,-93.2178,2025-12-31T10:43:00.000-06:00,2025-12-31T10:43:00.000-06:00,RSW,SOUTHWEST FLORIDA INTERNATIONAL AIRPORT,FMY,FORT MYERS,US,UNITED STATES,26.5333,-81.75,2025-12-31T15:13:00.000-05:00,2025-12-31T15:13:00.000-05:00,2025-12-31T15:13:00.000-05:00,PT3H30M,0,739,BOEING 737-900 PASSENGER,DELTA AIR LINES INC.
1381,2025-12-31,20251231+DL+1381,SCHEDULED,DL,DELTA AIR LINES INC.,ATL->CHS->ATL,ATL,ATL,CANCELLED,Cancelled,SLC,SALT LAKE CITY INTERNATIONAL AIRPORT,SLC,SALT LAKE CITY,US,UNITED STATES,40.7842,-111.9669,2025-12-30T17:15:00.000-07:00,2025-12-30T17:15:00.000-07:00,GEG,SPOKANE INTERNATIONAL AIRPORT,GEG,SPOKANE,US,UNITED STATES,47.6169,-117.5372,2025-12-30T18:00:00.000-08:00,2025-12-30T18:00:00.000-08:00,2025-12-30T18:00:00.000-08:00,PT1H45M,0,223,AIRBUS A220-300 PASSENGER,DELTA AIR LINES INC.
1381,2025-12-31,20251231+DL+1381,SCHEDULED,DL,DELTA AIR LINES INC.,ATL->CHS->ATL,ATL,ATL,SCHEDULED,Scheduled,ATL,HARTSFIELD-JACKSON INTERNATIONAL AIRPORT,ATL,ATLANTA,US,UNITED STATES,33.6408,-84.4272,2025-12-31T14:30:00.000-05:00,2025-12-31T14:30:00.000-05:00,CHS,CHARLESTON INTERNATIONAL AIRFORCE BASE,CHS,CHARLESTON,US,UNITED STATES,32.8992,-80.0389,2025-12-31T15:46:00.000-05:00,2025-12-31T15:46:00.000-05:00,2025-12-31T15:46:00.000-05:00,PT1H16M,0,739,BOEING 737-900 PASSENGER,DELTA AIR LINES INC.
1381,2025-12-31,20251231+DL+1381,SCHEDULED,DL,DELTA AIR LINES INC.,ATL->CHS->ATL,ATL,ATL,SCHEDULED,Scheduled,CHS,CHARLESTON INTERNATIONAL AIRFORCE BASE,CHS,CHARLESTON,US,UNITED STATES,32.8992,-80.0389,2025-12-31T16:30:00.000-05:00,2025-12-31T16:30:00.000-05:00,ATL,HARTSFIELD-JACKSON INTERNATIONAL AIRPORT,ATL,ATLANTA,US,UNITED STATES,33.6408,-84.4272,2025-12-31T17:45:00.000-05:00,2025-12-31T17:45:00.000-05:00,2025-12-31T17:45:00.000-05:00,PT1H15M,0,739,BOEING 737-900 PASSENGER,DELTA AIR LINES INC.
2809,2025-12-31,20251231+DL+2809,SCHEDULED,DL,DELTA AIR LINES INC.,SFO->SEA,SFO,SEA,CANCELLED,Cancelled,MSP,MINNEAPOLIS INTERNATIONAL AIRPORT,MSP,MINNEAPOLIS/ST PAUL,US,UNITED STATES,44.8861,-93.2178,2025-12-30T18:15:00.000-06:00,2025-12-30T18:15:00.000-06:00,SFO,SAN FRANCISCO INTERNATIONAL AIRPORT,SFO,SAN FRANCISCO,US,UNITED STATES,37.6194,-122.3728,2025-12-30T20:31:00.000-08:00,2025-12-30T20:31:00.000-08:00,2025-12-30T20:31:00.000-08:00,PT4H16M,0,739,BOEING 737-900 PASSENGER,DELTA AIR LINES INC.
2809,2025-12-31,20251231+DL+2809,SCHEDULED,DL,DELTA AIR LINES INC.,SFO->SEA,SFO,SEA,SCHEDULED,Scheduled,SFO,SAN FRANCISCO INTERNATIONAL AIRPORT,SFO,SAN FRANCISCO,US,UNITED STATES,37.6194,-122.3728,2025-12-31T06:05:00.000-08:00,2025-12-31T06:05:00.000-08:00,SEA,SEATTLE-TACOMA INTERNATIONAL AIRPORT,SEA,SEATTLE,US,UNITED STATES,47.4472,-122.3056,2025-12-31T08:23:00.000-08:00,2025-12-31T08:23:00.000-08:00,2025-12-31T08:23:00.000-08:00,PT2H18M,0,738,BOEING 737-800 PASSENGER,DELTA AIR LINES INC.
3676,2025-12-31,20251231+DL+3676,SCHEDULED,DL,DELTA AIR LINES INC.,ASE->ATL,ASE,ATL,CANCELLED,Cancelled,BZN,YELLOWSTONE INTERNATIONAL AIRPORT,BZN,BOZEMAN,US,UNITED STATES,45.7803,-111.1594,2025-12-30T19:00:00.000-07:00,2025-12-30T19:00:00.000-07:00,SLC,SALT LAKE CITY INTERNATIONAL AIRPORT,SLC,SALT LAKE CITY,US,UNITED STATES,40.7842,-111.9669,2025-12-30T20:28:00.000-07:00,2025-12-30T20:28:00.000-07:00,2025-12-30T20:28:00.000-07:00,PT1H28M,0,E7W,EMBRAER 175 (ENHANCED WINGLETS),SKYWEST AIRLINES
3676,2025-12-31,20251231+DL+3676,SCHEDULED,DL,DELTA AIR LINES INC.,ASE->ATL,ASE,ATL,CANCELLED,Cancelled,SLC,SALT LAKE CITY INTERNATIONAL AIRPORT,SLC,SALT LAKE CITY,US,UNITED STATES,40.7842,-111.9669,2025-12-30T17:15:00.000-07:00,2025-12-30T17:15:00.000-07:00,BZN,YELLOWSTONE INTERNATIONAL AIRPORT,BZN,BOZEMAN,US,UNITED STATES,45.7803,-111.1594,2025-12-30T18:35:00.000-07:00,2025-12-30T18:35:00.000-07:00,2025-12-30T18:35:00.000-07:00,PT1H20M,0,E7W,EMBRAER 175 (ENHANCED WINGLETS),SKYWEST AIRLINES
3676,2025-12-31,20251231+DL+3676,SCHEDULED,DL,DELTA AIR LINES INC.,ASE->ATL,ASE,ATL,SCHEDULED,Scheduled,ASE,PITKIN COUNTY AIRPORT,ASE,ASPEN,US,UNITED STATES,39.2242,-106.8689,2025-12-31T14:45:00.000-07:00,2025-12-31T14:45:00.000-07:00,ATL,HARTSFIELD-JACKSON INTERNATIONAL AIRPORT,ATL,ATLANTA,US,UNITED STATES,33.6408,-84.4272,2025-12-31T20:01:00.000-05:00,2025-12-31T20:01:00.000-05:00,2025-12-31T20:01:00.000-05:00,PT3H16M,0,CR7,CANADAIR REGIONAL JET 700 AND CHALLENGER 870,SKYWEST AIRLINES
3770,2025-12-31,20251231+DL+3770,SCHEDULED,DL,DELTA AIR LINES INC.,MFR->SEA,MFR,SEA,CANCELLED,Cancelled,GEG,SPOKANE INTERNATIONAL AIRPORT,GEG,SPOKANE,US,UNITED STATES,47.6169,-117.5372,2025-12-30T19:00:00.000-08:00,2025-12-30T19:00:00.000-08:00,SLC,SALT LAKE CITY INTERNATIONAL AIRPORT,SLC,SALT LAKE CITY,US,UNITED STATES,40.7842,-111.9669,2025-12-30T22:01:00.000-07:00,2025-12-30T22:01:00.000-07:00,2025-12-30T22:01:00.000-07:00,PT2H1M,0,E7W,EMBRAER 175 (ENHANCED WINGLETS),SKYWEST AIRLINES
3770,2025-12-31,20251231+DL+3770,SCHEDULED,DL,DELTA AIR LINES INC.,MFR->SEA,MFR,SEA,CANCELLED,Cancelled,SEA,SEATTLE-TACOMA INTERNATIONAL AIRPORT,SEA,SEATTLE,US,UNITED STATES,47.4472,-122.3056,2025-12-31T15:15:00.000-08:00,2025-12-31T15:15:00.000-08:00,MFR,ROGUE VALLEY INTERNATIONAL AIRPORT,MFR,MEDFORD,US,UNITED STATES,42.3736,-122.8722,2025-12-31T16:46:00.000-08:00,2025-12-31T16:46:00.000-08:00,2025-12-31T16:46:00.000-08:00,PT1H31M,0,E7W,EMBRAER 175 (ENHANCED WINGLETS),SKYWEST AIRLINES
3770,2025-12-31,20251231+DL+3770,SCHEDULED,DL,DELTA AIR LINES INC.,MFR->SEA,MFR,SEA,CANCELLED,Cancelled,SLC,SALT LAKE CITY INTERNATIONAL AIRPORT,SLC,SALT LAKE CITY,US,UNITED STATES,40.7842,-111.9669,2025-12-30T17:15:00.000-07:00,2025-12-30T17:15:00.000-07:00,GEG,SPOKANE INTERNATIONAL AIRPORT,GEG,SPOKANE,US,UNITED STATES,47.6169,-117.5372,2025-12-30T18:09:00.000-08:00,2025-12-30T18:09:00.000-08:00,2025-12-30T18:09:00.000-08:00,PT1H54M,0,E7W,EMBRAER 175 (ENHANCED WINGLETS),SKYWEST AIRLINES
3770,2025-12-31,20251231+DL+3770,SCHEDULED,DL,DELTA AIR LINES INC.,MFR->SEA,MFR,SEA,SCHEDULED,Scheduled,MFR,ROGUE VALLEY INTERNATIONAL AIRPORT,MFR,MEDFORD,US,UNITED STATES,42.3736,-122.8722,2025-12-31T12:47:00.000-08:00,2025-12-31T12:47:00.000-08:00,SEA,SEATTLE-TACOMA INTERNATIONAL AIRPORT,SEA,SEATTLE,US,UNITED STATES,47.4472,-122.3056,2025-12-31T14:22:00.000-08:00,2025-12-31T14:22:00.000-08:00,2025-12-31T14:22:00.000-08:00,PT1H35M,0,E7W,EMBRAER 175 (ENHANCED WINGLETS),SKYWEST AIRLINES
1253,2025-12-31,20251231+DL+1253,SCHEDULED,DL,DELTA AIR LINES INC.,ATL->DTW,ATL,DTW,CANCELLED,Cancelled,ATL,HARTSFIELD-JACKSON INTERNATIONAL AIRPORT,ATL,ATLANTA,US,UNITED STATES,33.6408,-84.4272,2025-12-31T12:34:00.000-05:00,2025-12-31T12:34:00.000-05:00,MIA,MIAMI INTERNATIONAL AIRPORT,MIA,MIAMI,US,UNITED STATES,25.7925,-80.2861,2025-12-31T14:28:00.000-05:00,2025-12-31T14:28:00.000-05:00,2025-12-31T14:28:00.000-05:00,PT1H54M,0,757,BOEING 757 PASSENGER,DELTA AIR LINES INC.
1253,2025-12-31,20251231+DL+1253,SCHEDULED,DL,DELTA AIR LINES INC.,ATL->DTW,ATL,DTW,CANCELLED,Cancelled,MIA,MIAMI INTERNATIONAL AIRPORT,MIA,MIAMI,US,UNITED STATES,25.7925,-80.2861,2025-12-31T15:35:00.000-05:00,2025-12-31T15:35:00.000-05:00,ATL,HARTSFIELD-JACKSON INTERNATIONAL AIRPORT,ATL,ATLANTA,US,UNITED STATES,33.6408,-84.4272,2025-12-31T17:37:00.000-05:00,2025-12-31T17:37:00.000-05:00,2025-12-31T17:37:00.000-05:00,PT2H2M,0,757,BOEING 757 PASSENGER,DELTA AIR LINES INC.
1253,2025-12-31,20251231+DL+1253,SCHEDULED,DL,DELTA AIR LINES INC.,ATL->DTW,ATL,DTW,SCHEDULED,Scheduled,ATL,HARTSFIELD-JACKSON INTERNATIONAL AIRPORT,ATL,ATLANTA,US,UNITED STATES,33.6408,-84.4272,2025-12-30T19:20:00.000-05:00,2025-12-30T19:20:00.000-05:00,DTW,METROPOLITAN WAYNE COUNTY AIRPORT,DTT,DETROIT,US,UNITED STATES,42.2186,-83.3486,2025-12-30T21:20:00.000-05:00,2025-12-30T21:20:00.000-05:00,2025-12-30T21:20:00.000-05:00,PT2H,0,757,BOEING 757 PASSENGER,DELTA AIR LINES INC.
1616,2025-12-31,20251231+DL+1616,SCHEDULED,DL,DELTA AIR LINES INC.,DEN->MSP,DEN,MSP,CANCELLED,Cancelled,ATL,HARTSFIELD-JACKSON INTERNATIONAL AIRPORT,ATL,ATLANTA,US,UNITED STATES,33.6408,-84.4272,2025-12-30T19:20:00.000-05:00,2025-12-30T19:20:00.000-05:00,HPN,WESTCHESTER COUNTY AIRPORT,HPN,WESTCHESTER COUNTY,US,UNITED STATES,41.0689,-73.7078,2025-12-30T21:44:00.000-05:00,2025-12-30T21:44:00.000-05:00,2025-12-30T21:44:00.000-05:00,PT2H24M,0,717,BOEING 717-200,DELTA AIR LINES INC.
1616,2025-12-31,20251231+DL+1616,SCHEDULED,DL,DELTA AIR LINES INC.,DEN->MSP,DEN,MSP,SCHEDULED,Scheduled,DEN,DENVER INTERNATIONAL AIRPORT,DEN,DENVER,US,UNITED STATES,39.8547,-104.7181,2025-12-31T16:15:00.000-07:00,2025-12-31T16:15:00.000-07:00,MSP,MINNEAPOLIS INTERNATIONAL AIRPORT,MSP,MINNEAPOLIS/ST PAUL,US,UNITED STATES,44.8861,-93.2178,2025-12-31T19:15:00.000-06:00,2025-12-31T19:15:00.000-06:00,2025-12-31T19:15:00.000-06:00,PT2H,0,320,AIRBUS A320,DELTA AIR LINES INC.
2092,2025-12-31,20251231+DL+2092,SCHEDULED,DL,DELTA AIR LINES INC.,ATL->BHM,ATL,BHM,CANCELLED,Cancelled,ATL,HARTSFIELD-JACKSON INTERNATIONAL AIRPORT,ATL,ATLANTA,US,UNITED STATES,33.6408,-84.4272,2025-12-30T19:20:00.000-05:00,2025-12-30T19:20:00.000-05:00,CLT,DOUGLAS INTERNATIONAL AIRPORT,CLT,CHARLOTTE,US,UNITED STATES,35.2192,-80.9358,2025-12-30T20:34:00.000-05:00,2025-12-30T20:34:00.000-05:00,2025-12-30T20:34:00.000-05:00,PT1H14M,0,717,BOEING 717-200,DELTA AIR LINES INC.
2092,2025-12-31,20251231+DL+2092,SCHEDULED,DL,DELTA AIR LINES INC.,ATL->BHM,ATL,BHM,CANCELLED,Cancelled,IND,INDIANAPOLIS INTERNATIONAL AIRPORT,IND,INDIANAPOLIS,US,UNITED STATES,39.7289,-86.2817,2025-12-31T11:00:00.000-05:00,2025-12-31T11:00:00.000-05:00,MSP,MINNEAPOLIS INTERNATIONAL AIRPORT,MSP,MINNEAPOLIS/ST PAUL,US,UNITED STATES,44.8861,-93.2178,2025-12-31T11:47:00.000-06:00,2025-12-31T11:47:00.000-06:00,2025-12-31T11:47:00.000-06:00,PT1H47M,0,739,BOEING 737-900 PASSENGER,DELTA AIR LINES INC.
2092,2025-12-31,20251231+DL+2092,SCHEDULED,DL,DELTA AIR LINES INC.,ATL->BHM,ATL,BHM,SCHEDULED,Scheduled,ATL,HARTSFIELD-JACKSON INTERNATIONAL AIRPORT,ATL,ATLANTA,US,UNITED STATES,33.6408,-84.4272,2025-12-30T20:05:00.000-05:00,2025-12-30T20:05:00.000-05:00,BHM,SHUTTLESWORTH INTERNATIONAL AIRPORT,BHM,BIRMINGHAM,US,UNITED STATES,33.5631,-86.7556,2025-12-30T20:01:00.000-06:00,2025-12-30T20:01:00.000-06:00,2025-12-30T20:01:00.000-06:00,PT56M,0,717,BOEING 717-200,DELTA AIR LINES INC.
574,2025-12-31,20251231+DL+0574,SCHEDULED,DL,DELTA AIR LINES INC.,ATL->TUS->ATL,ATL,ATL,CANCELLED,Cancelled,MSP,MINNEAPOLIS INTERNATIONAL AIRPORT,MSP,MINNEAPOLIS/ST PAUL,US,UNITED STATES,44.8861,-93.2178,2025-12-30T18:25:00.000-06:00,2025-12-30T18:25:00.000-06:00,SMF,SACRAMENTO INTERNATIONAL AIRPORT,SAC,SACRAMENTO,US,UNITED STATES,38.6956,-121.5983,2025-12-30T20:18:00.000-08:00,2025-12-30T20:18:00.000-08:00,2025-12-30T20:18:00.000-08:00,PT3H53M,0,739,BOEING 737-900 PASSENGER,DELTA AIR LINES INC.
574,2025-12-31,20251231+DL+0574,SCHEDULED,DL,DELTA AIR LINES INC.,ATL->TUS->ATL,ATL,ATL,SCHEDULED,Scheduled,ATL,HARTSFIELD-JACKSON INTERNATIONAL AIRPORT,ATL,ATLANTA,US,UNITED STATES,33.6408,-84.4272,2025-12-31T13:00:00.000-05:00,2025-12-31T13:00:00.000-05:00,TUS,TUCSON INTERNATIONAL AIRPORT,TUS,TUCSON,US,UNITED STATES,32.125,-110.9492,2025-12-31T14:55:00.000-07:00,2025-12-31T14:55:00.000-07:00,2025-12-31T14:55:00.000-07:00,PT3H55M,0,321,AIRBUS A321,DELTA AIR LINES INC.
574,2025-12-31,20251231+DL+0574,SCHEDULED,DL,DELTA AIR LINES INC.,ATL->TUS->ATL,ATL,ATL,SCHEDULED,Scheduled,TUS,TUCSON INTERNATIONAL AIRPORT,TUS,TUCSON,US,UNITED STATES,32.125,-110.9492,2025-12-31T16:15:00.000-07:00,2025-12-31T16:15:00.000-07:00,ATL,HARTSFIELD-JACKSON INTERNATIONAL AIRPORT,ATL,ATLANTA,US,UNITED STATES,33.6408,-84.4272,2025-12-31T21:50:00.000-05:00,2025-12-31T21:50:00.000-05:00,2025-12-31T21:50:00.000-05:00,PT3H35M,0,321,AIRBUS A321,DELTA AIR LINES INC.
643,2025-12-31,20251231+DL+0643,SCHEDULED,DL,DELTA AIR LINES INC.,CUN->JFK,CUN,JFK,CANCELLED,Cancelled,ATL,HARTSFIELD-JACKSON INTERNATIONAL AIRPORT,ATL,ATLANTA,US,UNITED STATES,33.6408,-84.4272,2025-12-30T19:25:00.000-05:00,2025-12-30T19:25:00.000-05:00,PWM,PORTLAND INTERNATIONAL JETPORT,PWM,PORTLAND,US,UNITED STATES,43.6444,-70.3036,2025-12-30T22:10:00.000-05:00,2025-12-30T22:10:00.000-05:00,2025-12-30T22:10:00.000-05:00,PT2H45M,0,320,AIRBUS A320,DELTA AIR LINES INC.
643,2025-12-31,20251231+DL+0643,SCHEDULED,DL,DELTA AIR LINES INC.,CUN->JFK,CUN,JFK,SCHEDULED,Scheduled,CUN,CANCUN INTERNATIONAL AIRPORT,CUN,CANCUN,MX,MEXICO,21.0333,-86.8667,2025-12-31T15:45:00.000-05:00,2025-12-31T15:45:00.000-05:00,JFK,JOHN F. KENNEDY INTERNATIONAL AIRPORT,NYC,NEW YORK,US,UNITED STATES,40.6386,-73.7769,2025-12-31T19:37:00.000-05:00,2025-12-31T19:37:00.000-05:00,2025-12-31T19:37:00.000-05:00,PT3H52M,0,32Q,AIRBUS A321NEO,DELTA AIR LINES INC.
693,2025-12-31,20251231+DL+0693,SCHEDULED,DL,DELTA AIR LINES INC.,ATL->SFO,ATL,SFO,CANCELLED,Cancelled,CMH,PORT COLUMBUS INTERNATIONAL AIRPORT,CMH,COLUMBUS,US,UNITED STATES,39.9911,-82.8783,2025-12-31T14:20:00.000-05:00,2025-12-31T14:20:00.000-05:00,ATL,HARTSFIELD-JACKSON INTERNATIONAL AIRPORT,ATL,ATLANTA,US,UNITED STATES,33.6408,-84.4272,2025-12-31T16:01:00.000-05:00,2025-12-31T16:01:00.000-05:00,2025-12-31T16:01:00.000-05:00,PT1H41M,0,739,BOEING 737-900 PASSENGER,DELTA AIR LINES INC.
693,2025-12-31,20251231+DL+0693,SCHEDULED,DL,DELTA AIR LINES INC.,ATL->SFO,ATL,SFO,CANCELLED,Cancelled,ATL,HARTSFIELD-JACKSON INTERNATIONAL AIRPORT,ATL,ATLANTA,US,UNITED STATES,33.6408,-84.4272,2025-12-31T11:30:00.000-05:00,2025-12-31T11:30:00.000-05:00,CMH,PORT COLUMBUS INTERNATIONAL AIRPORT,CMH,COLUMBUS,US,UNITED STATES,39.9911,-82.8783,2025-12-31T13:07:00.000-05:00,2025-12-31T13:07:00.000-05:00,2025-12-31T13:07:00.000-05:00,PT1H37M,0,739,BOEING 737-900 PASSENGER,DELTA AIR LINES INC.
693,2025-12-31,20251231+DL+0693,SCHEDULED,DL,DELTA AIR LINES INC.,ATL->SFO,ATL,SFO,SCHEDULED,Scheduled,ATL,HARTSFIELD-JACKSON INTERNATIONAL AIRPORT,ATL,ATLANTA,US,UNITED STATES,33.6408,-84.4272,2025-12-30T19:25:00.000-05:00,2025-12-30T19:25:00.000-05:00,SFO,SAN FRANCISCO INTERNATIONAL AIRPORT,SFO,SAN FRANCISCO,US,UNITED STATES,37.6194,-122.3728,2025-12-30T21:48:00.000-08:00,2025-12-30T21:48:00.000-08:00,2025-12-30T21:48:00.000-08:00,PT5H23M,0,75W,BOEING 757-200 WINGLETS PASSENGER,DELTA AIR LINES INC.
731,2025-12-31,20251231+DL+0731,SCHEDULED,DL,DELTA AIR LINES INC.,ATL->SAN->ATL,ATL,ATL,CANCELLED,Cancelled,MSP,MINNEAPOLIS INTERNATIONAL AIRPORT,MSP,MINNEAPOLIS/ST PAUL,US,UNITED STATES,44.8861,-93.2178,2025-12-31T11:00:00.000-06:00,2025-12-31T11:00:00.000-06:00,PSP,PALM SPRINGS INTERNATIONAL AIRPORT,PSP,PALM SPRINGS,US,UNITED STATES,33.8267,-116.505,2025-12-31T12:44:00.000-08:00,2025-12-31T12:44:00.000-08:00,2025-12-31T12:44:00.000-08:00,PT3H44M,0,320,AIRBUS A320,DELTA AIR LINES INC.
731,2025-12-31,20251231+DL+0731,SCHEDULED,DL,DELTA AIR LINES INC.,ATL->SAN->ATL,ATL,ATL,CANCELLED,Cancelled,PSP,PALM SPRINGS INTERNATIONAL AIRPORT,PSP,PALM SPRINGS,US,UNITED STATES,33.8267,-116.505,2025-12-31T13:40:00.000-08:00,2025-12-31T13:40:00.000-08:00,MSP,MINNEAPOLIS INTERNATIONAL AIRPORT,MSP,MINNEAPOLIS/ST PAUL,US,UNITED STATES,44.8861,-93.2178,2025-12-31T19:03:00.000-06:00,2025-12-31T19:03:00.000-06:00,2025-12-31T19:03:00.000-06:00,PT3H23M,0,320,AIRBUS A320,DELTA AIR LINES INC.
731,2025-12-31,20251231+DL+0731,SCHEDULED,DL,DELTA AIR LINES INC.,ATL->SAN->ATL,ATL,ATL,SCHEDULED,Scheduled,ATL,HARTSFIELD-JACKSON INTERNATIONAL AIRPORT,ATL,ATLANTA,US,UNITED STATES,33.6408,-84.4272,2025-12-30T19:25:00.000-05:00,2025-12-30T19:25:00.000-05:00,SAN,SAN DIEGO INTERNATIONAL AIRPORT,SAN,SAN DIEGO,US,UNITED STATES,32.7328,-117.1872,2025-12-30T21:09:00.000-08:00,2025-12-30T21:09:00.000-08:00,2025-12-30T21:09:00.000-08:00,PT4H44M,0,321,AIRBUS A321,DELTA AIR LINES INC.
731,2025-12-31,20251231+DL+0731,SCHEDULED,DL,DELTA AIR LINES INC.,ATL->SAN->ATL,ATL,ATL,SCHEDULED,Scheduled,SAN,SAN DIEGO INTERNATIONAL AIRPORT,SAN,SAN DIEGO,US,UNITED STATES,32.7328,-117.1872,2025-12-30T22:50:00.000-08:00,2025-12-30T22:50:00.000-08:00,ATL,HARTSFIELD-JACKSON INTERNATIONAL AIRPORT,ATL,ATLANTA,US,UNITED STATES,33.6408,-84.4272,2025-12-31T06:02:00.000-05:00,2025-12-31T06:02:00.000-05:00,2025-12-31T06:02:00.000-05:00,PT4H12M,0,321,AIRBUS A321,DELTA AIR LINES INC.
1559,2025-12-31,20251231+DL+1559,SCHEDULED,DL,DELTA AIR LINES INC.,DTW->RSW->DTW,DTW,DTW,CANCELLED,Cancelled,LAX,LOS ANGELES INTERNATIONAL AIRPORT,LAX,LOS ANGELES,US,UNITED STATES,33.9422,-118.4072,2025-12-30T16:25:00.000-08:00,2025-12-30T16:25:00.000-08:00,SFO,SAN FRANCISCO INTERNATIONAL AIRPORT,SFO,SAN FRANCISCO,US,UNITED STATES,37.6194,-122.3728,2025-12-30T17:47:00.000-08:00,2025-12-30T17:47:00.000-08:00,2025-12-30T17:47:00.000-08:00,PT1H22M,0,739,BOEING 737-900 PASSENGER,DELTA AIR LINES INC.
1559,2025-12-31,20251231+DL+1559,SCHEDULED,DL,DELTA AIR LINES INC.,DTW->RSW->DTW,DTW,DTW,CANCELLED,Cancelled,SFO,SAN FRANCISCO INTERNATIONAL AIRPORT,SFO,SAN FRANCISCO,US,UNITED STATES,37.6194,-122.3728,2025-12-30T18:50:00.000-08:00,2025-12-30T18:50:00.000-08:00,LAX,LOS ANGELES INTERNATIONAL AIRPORT,LAX,LOS ANGELES,US,UNITED STATES,33.9422,-118.4072,2025-12-30T20:25:00.000-08:00,2025-12-30T20:25:00.000-08:00,2025-12-30T20:25:00.000-08:00,PT1H35M,0,739,BOEING 737-900 PASSENGER,DELTA AIR LINES INC.
1559,2025-12-31,20251231+DL+1559,SCHEDULED,DL,DELTA AIR LINES INC.,DTW->RSW->DTW,DTW,DTW,SCHEDULED,Scheduled,DTW,METROPOLITAN WAYNE COUNTY AIRPORT,DTT,DETROIT,US,UNITED STATES,42.2186,-83.3486,2025-12-31T07:05:00.000-05:00,2025-12-31T07:05:00.000-05:00,RSW,SOUTHWEST FLORIDA INTERNATIONAL AIRPORT,FMY,FORT MYERS,US,UNITED STATES,26.5333,-81.75,2025-12-31T10:01:00.000-05:00,2025-12-31T10:01:00.000-05:00,2025-12-31T10:01:00.000-05:00,PT2H56M,0,753,BOEING 757-300 PASSENGER,DELTA AIR LINES INC.
1559,2025-12-31,20251231+DL+1559,SCHEDULED,DL,DELTA AIR LINES INC.,DTW->RSW->DTW,DTW,DTW,SCHEDULED,Scheduled,RSW,SOUTHWEST FLORIDA INTERNATIONAL AIRPORT,FMY,FORT MYERS,US,UNITED STATES,26.5333,-81.75,2025-12-31T11:27:00.000-05:00,2025-12-31T11:27:00.000-05:00,DTW,METROPOLITAN WAYNE COUNTY AIRPORT,DTT,DETROIT,US,UNITED STATES,42.2186,-83.3486,2025-12-31T14:22:00.000-05:00,2025-12-31T14:22:00.000-05:00,2025-12-31T14:22:00.000-05:00,PT2H55M,0,753,BOEING 757-300 PASSENGER,DELTA AIR LINES INC.
1645,2025-12-31,20251231+DL+1645,SCHEDULED,DL,DELTA AIR LINES INC.,SEA->PHX->SEA,SEA,SEA,CANCELLED,Cancelled,SLC,SALT LAKE CITY INTERNATIONAL AIRPORT,SLC,SALT LAKE CITY,US,UNITED STATES,40.7842,-111.9669,2025-12-30T17:55:00.000-07:00,2025-12-30T17:55:00.000-07:00,JAC,JACKSON HOLE AIRPORT,JAC,JACKSON,US,UNITED STATES,43.6067,-110.7369,2025-12-30T19:04:00.000-07:00,2025-12-30T19:04:00.000-07:00,2025-12-30T19:04:00.000-07:00,PT1H9M,0,319,AIRBUS A319,DELTA AIR LINES INC.
1645,2025-12-31,20251231+DL+1645,SCHEDULED,DL,DELTA AIR LINES INC.,SEA->PHX->SEA,SEA,SEA,CANCELLED,Cancelled,MSP,MINNEAPOLIS INTERNATIONAL AIRPORT,MSP,MINNEAPOLIS/ST PAUL,US,UNITED STATES,44.8861,-93.2178,2025-12-30T18:25:00.000-06:00,2025-12-30T18:25:00.000-06:00,BIS,BISMARCK MUNICIPAL AIRPORT,BIS,BISMARCK,US,UNITED STATES,46.7739,-100.75,2025-12-30T19:53:00.000-06:00,2025-12-30T19:53:00.000-06:00,2025-12-30T19:53:00.000-06:00,PT1H28M,0,739,BOEING 737-900 PASSENGER,DELTA AIR LINES INC.
1645,2025-12-31,20251231+DL+1645,SCHEDULED,DL,DELTA AIR LINES INC.,SEA->PHX->SEA,SEA,SEA,SCHEDULED,Scheduled,SEA,SEATTLE-TACOMA INTERNATIONAL AIRPORT,SEA,SEATTLE,US,UNITED STATES,47.4472,-122.3056,2025-12-31T13:35:00.000-08:00,2025-12-31T13:35:00.000-08:00,PHX,SKY HARBOR INTERNATIONAL AIRPORT,PHX,PHOENIX,US,UNITED STATES,33.4353,-112.0119,2025-12-31T17:33:00.000-07:00,2025-12-31T17:33:00.000-07:00,2025-12-31T17:33:00.000-07:00,PT2H58M,0,738,BOEING 737-800 PASSENGER,DELTA AIR LINES INC.
1645,2025-12-31,20251231+DL+1645,SCHEDULED,DL,DELTA AIR LINES INC.,SEA->PHX->SEA,SEA,SEA,SCHEDULED,Scheduled,PHX,SKY HARBOR INTERNATIONAL AIRPORT,PHX,PHOENIX,US,UNITED STATES,33.4353,-112.0119,2025-12-31T18:30:00.000-07:00,2025-12-31T18:30:00.000-07:00,SEA,SEATTLE-TACOMA INTERNATIONAL AIRPORT,SEA,SEATTLE,US,UNITED STATES,47.4472,-122.3056,2025-12-31T20:49:00.000-08:00,2025-12-31T20:49:00.000-08:00,2025-12-31T20:49:00.000-08:00,PT3H19M,0,738,BOEING 737-800 PASSENGER,DELTA AIR LINES INC.
2619,2025-12-31,20251231+DL+2619,SCHEDULED,DL,DELTA AIR LINES INC.,DFW->DTW,DFW,DTW,CANCELLED,Cancelled,SLC,SALT LAKE CITY INTERNATIONAL AIRPORT,SLC,SALT LAKE CITY,US,UNITED STATES,40.7842,-111.9669,2025-12-30T17:25:00.000-07:00,2025-12-30T17:25:00.000-07:00,MKE,GENERAL MITCHELL INTERNATIONAL AIRPORT,MKE,MILWAUKEE,US,UNITED STATES,42.9503,-87.8972,2025-12-30T21:24:00.000-06:00,2025-12-30T21:24:00.000-06:00,2025-12-30T21:24:00.000-06:00,PT2H59M,0,319,AIRBUS A319,DELTA AIR LINES INC.
2619,2025-12-31,20251231+DL+2619,SCHEDULED,DL,DELTA AIR LINES INC.,DFW->DTW,DFW,DTW,SCHEDULED,Scheduled,DFW,DALLAS/FT. WORTH INTERNATIONAL AIRPORT,DFW,DALLAS,US,UNITED STATES,32.8944,-97.0297,2025-12-31T15:21:00.000-06:00,2025-12-31T15:21:00.000-06:00,DTW,METROPOLITAN WAYNE COUNTY AIRPORT,DTT,DETROIT,US,UNITED STATES,42.2186,-83.3486,2025-12-31T19:01:00.000-05:00,2025-12-31T19:01:00.000-05:00,2025-12-31T19:01:00.000-05:00,PT2H40M,0,319,AIRBUS A319,DELTA AIR LINES INC.
3753,2025-12-31,20251231+DL+3753,SCHEDULED,DL,DELTA AIR LINES INC.,MSP->FSD->MSP,MSP,MSP,CANCELLED,Cancelled,GEG,SPOKANE INTERNATIONAL AIRPORT,GEG,SPOKANE,US,UNITED STATES,47.6169,-117.5372,2025-12-30T19:07:00.000-08:00,2025-12-30T19:07:00.000-08:00,SLC,SALT LAKE CITY INTERNATIONAL AIRPORT,SLC,SALT LAKE CITY,US,UNITED STATES,40.7842,-111.9669,2025-12-30T22:01:00.000-07:00,2025-12-30T22:01:00.000-07:00,2025-12-30T22:01:00.000-07:00,PT1H54M,0,E7W,EMBRAER 175 (ENHANCED WINGLETS),SKYWEST AIRLINES
3753,2025-12-31,20251231+DL+3753,SCHEDULED,DL,DELTA AIR LINES INC.,MSP->FSD->MSP,MSP,MSP,CANCELLED,Cancelled,ATL,HARTSFIELD-JACKSON INTERNATIONAL AIRPORT,ATL,ATLANTA,US,UNITED STATES,33.6408,-84.4272,2025-12-31T15:15:00.000-05:00,2025-12-31T15:15:00.000-05:00,SBN,SOUTH BEND INTERNATIONAL AIRPORT,SBN,SOUTH BEND,US,UNITED STATES,41.7044,-86.3125,2025-12-31T17:10:00.000-05:00,2025-12-31T17:10:00.000-05:00,2025-12-31T17:10:00.000-05:00,PT1H55M,0,CR9,CANADAIR REGIONAL JET 900 AND CHALLENGER 890,SKYWEST AIRLINES
3753,2025-12-31,20251231+DL+3753,SCHEDULED,DL,DELTA AIR LINES INC.,MSP->FSD->MSP,MSP,MSP,CANCELLED,Cancelled,SLC,SALT LAKE CITY INTERNATIONAL AIRPORT,SLC,SALT LAKE CITY,US,UNITED STATES,40.7842,-111.9669,2025-12-30T17:25:00.000-07:00,2025-12-30T17:25:00.000-07:00,GEG,SPOKANE INTERNATIONAL AIRPORT,GEG,SPOKANE,US,UNITED STATES,47.6169,-117.5372,2025-12-30T18:21:00.000-08:00,2025-12-30T18:21:00.000-08:00,2025-12-30T18:21:00.000-08:00,PT1H56M,0,E7W,EMBRAER 175 (ENHANCED WINGLETS),SKYWEST AIRLINES
3753,2025-12-31,20251231+DL+3753,SCHEDULED,DL,DELTA AIR LINES INC.,MSP->FSD->MSP,MSP,MSP,CANCELLED,Cancelled,SBN,SOUTH BEND INTERNATIONAL AIRPORT,SBN,SOUTH BEND,US,UNITED STATES,41.7044,-86.3125,2025-12-31T17:55:00.000-05:00,2025-12-31T17:55:00.000-05:00,ATL,HARTSFIELD-JACKSON INTERNATIONAL AIRPORT,ATL,ATLANTA,US,UNITED STATES,33.6408,-84.4272,2025-12-31T19:59:00.000-05:00,2025-12-31T19:59:00.000-05:00,2025-12-31T19:59:00.000-05:00,PT2H4M,0,CR9,CANADAIR REGIONAL JET 900 AND CHALLENGER 890,SKYWEST AIRLINES
3753,2025-12-31,20251231+DL+3753,SCHEDULED,DL,DELTA AIR LINES INC.,MSP->FSD->MSP,MSP,MSP,CANCELLED,Cancelled,YYZ,LESTER B.PEARSON INTERNATIONAL AIRPORT,YTO,TORONTO,CA,CANADA,43.6833,-79.6333,2025-12-31T16:40:00.000-05:00,2025-12-31T16:40:00.000-05:00,JFK,JOHN F. KENNEDY INTERNATIONAL AIRPORT,NYC,NEW YORK,US,UNITED STATES,40.6386,-73.7769,2025-12-31T18:45:00.000-05:00,2025-12-31T18:45:00.000-05:00,2025-12-31T18:45:00.000-05:00,PT2H5M,0,E7W,EMBRAER 175 (ENHANCED WINGLETS),SKYWEST AIRLINES
3753,2025-12-31,20251231+DL+3753,SCHEDULED,DL,DELTA AIR LINES INC.,MSP->FSD->MSP,MSP,MSP,SCHEDULED,Scheduled,MSP,MINNEAPOLIS INTERNATIONAL AIRPORT,MSP,MINNEAPOLIS/ST PAUL,US,UNITED STATES,44.8861,-93.2178,2025-12-31T08:50:00.000-06:00,2025-12-31T08:50:00.000-06:00,FSD,JOE FOSS FIELD,FSD,SIOUX FALLS,US,UNITED STATES,43.5789,-96.7408,2025-12-31T10:05:00.000-06:00,2025-12-31T10:05:00.000-06:00,2025-12-31T10:05:00.000-06:00,PT1H15M,0,E7W,EMBRAER 175 (ENHANCED WINGLETS),SKYWEST AIRLINES
3753,2025-12-31,20251231+DL+3753,SCHEDULED,DL,DELTA AIR LINES INC.,MSP->FSD->MSP,MSP,MSP,SCHEDULED,Scheduled,FSD,JOE FOSS FIELD,FSD,SIOUX FALLS,US,UNITED STATES,43.5789,-96.7408,2025-12-31T10:59:00.000-06:00,2025-12-31T10:59:00.000-06:00,MSP,MINNEAPOLIS INTERNATIONAL AIRPORT,MSP,MINNEAPOLIS/ST PAUL,US,UNITED STATES,44.8861,-93.2178,2025-12-31T12:09:00.000-06:00,2025-12-31T12:09:00.000-06:00,2025-12-31T12:09:00.000-06:00,PT1H10M,0,E7W,EMBRAER 175 (ENHANCED WINGLETS),SKYWEST AIRLINES
3789,2025-12-31,20251231+DL+3789,SCHEDULED,DL,DELTA AIR LINES INC.,MDW->DTW,MDW,DTW,CANCELLED,Cancelled,SEA,SEATTLE-TACOMA INTERNATIONAL AIRPORT,SEA,SEATTLE,US,UNITED STATES,47.4472,-122.3056,2025-12-31T11:35:00.000-08:00,2025-12-31T11:35:00.000-08:00,SJC,SAN JOSE INTERNATIONAL AIRPORT,SJC,SAN JOSE,US,UNITED STATES,37.3611,-121.9256,2025-12-31T14:00:00.000-08:00,2025-12-31T14:00:00.000-08:00,2025-12-31T14:00:00.000-08:00,PT2H25M,0,E7W,EMBRAER 175 (ENHANCED WINGLETS),SKYWEST AIRLINES
3789,2025-12-31,20251231+DL+3789,SCHEDULED,DL,DELTA AIR LINES INC.,MDW->DTW,MDW,DTW,CANCELLED,Cancelled,ATL,HARTSFIELD-JACKSON INTERNATIONAL AIRPORT,ATL,ATLANTA,US,UNITED STATES,33.6408,-84.4272,2025-12-31T16:35:00.000-05:00,2025-12-31T16:35:00.000-05:00,SHV,SHREVEPORT REGIONAL AIRPORT,SHV,SHREVEPORT,US,UNITED STATES,32.4469,-93.75,2025-12-31T17:34:00.000-06:00,2025-12-31T17:34:00.000-06:00,2025-12-31T17:34:00.000-06:00,PT1H59M,0,CR9,CANADAIR REGIONAL JET 900 AND CHALLENGER 890,SKYWEST AIRLINES
3789,2025-12-31,20251231+DL+3789,SCHEDULED,DL,DELTA AIR LINES INC.,MDW->DTW,MDW,DTW,CANCELLED,Cancelled,SHV,SHREVEPORT REGIONAL AIRPORT,SHV,SHREVEPORT,US,UNITED STATES,32.4469,-93.75,2025-12-31T18:19:00.000-06:00,2025-12-31T18:19:00.000-06:00,ATL,HARTSFIELD-JACKSON INTERNATIONAL AIRPORT,ATL,ATLANTA,US,UNITED STATES,33.6408,-84.4272,2025-12-31T21:11:00.000-05:00,2025-12-31T21:11:00.000-05:00,2025-12-31T21:11:00.000-05:00,PT1H52M,0,CR9,CANADAIR REGIONAL JET 900 AND CHALLENGER 890,SKYWEST AIRLINES
3789,2025-12-31,20251231+DL+3789,SCHEDULED,DL,DELTA AIR LINES INC.,MDW->DTW,MDW,DTW,CANCELLED,Cancelled,SJC,SAN JOSE INTERNATIONAL AIRPORT,SJC,SAN JOSE,US,UNITED STATES,37.3611,-121.9256,2025-12-31T14:35:00.000-08:00,2025-12-31T14:35:00.000-08:00,SEA,SEATTLE-TACOMA INTERNATIONAL AIRPORT,SEA,SEATTLE,US,UNITED STATES,47.4472,-122.3056,2025-12-31T16:47:00.000-08:00,2025-12-31T16:47:00.000-08:00,2025-12-31T16:47:00.000-08:00,PT2H12M,0,E7W,EMBRAER 175 (ENHANCED WINGLETS),SKYWEST AIRLINES
3789,2025-12-31,20251231+DL+3789,SCHEDULED,DL,DELTA AIR LINES INC.,MDW->DTW,MDW,DTW,SCHEDULED,Scheduled,MDW,MIDWAY INTERNATIONAL AIRPORT,CHI,CHICAGO,US,UNITED STATES,41.785,-87.7519,2025-12-30T18:25:00.000-06:00,2025-12-30T18:25:00.000-06:00,DTW,METROPOLITAN WAYNE COUNTY AIRPORT,DTT,DETROIT,US,UNITED STATES,42.2186,-83.3486,2025-12-30T20:39:00.000-05:00,2025-12-30T20:39:00.000-05:00,2025-12-30T20:39:00.000-05:00,PT1H14M,0,E7W,EMBRAER 175 (ENHANCED WINGLETS),SKYWEST AIRLINES
5032,2025-12-31,20251231+DL+5032,SCHEDULED,DL,DELTA AIR LINES INC.,SAV->JFK,SAV,JFK,CANCELLED,Cancelled,YUL,PIERRE E. TRUDEAU INTERNATIONAL AIRPORT,YMQ,MONTREAL,CA,CANADA,45.4639,-73.75,2025-12-31T12:45:00.000-05:00,2025-12-31T12:45:00.000-05:00,DTW,METROPOLITAN WAYNE COUNTY AIRPORT,DTT,DETROIT,US,UNITED STATES,42.2186,-83.3486,2025-12-31T14:55:00.000-05:00,2025-12-31T14:55:00.000-05:00,2025-12-31T14:55:00.000-05:00,PT2H10M,0,CR9,CANADAIR REGIONAL JET 900 AND CHALLENGER 890,ENDEAVOR AIR
5032,2025-12-31,20251231+DL+5032,SCHEDULED,DL,DELTA AIR LINES INC.,SAV->JFK,SAV,JFK,CANCELLED,Cancelled,XNA,NORTHWEST ARKANSAS REGIONAL AIRPORT,FYV,FAYETTEVILLE,US,UNITED STATES,36.2817,-94.3067,2025-12-31T15:42:00.000-06:00,2025-12-31T15:42:00.000-06:00,ATL,HARTSFIELD-JACKSON INTERNATIONAL AIRPORT,ATL,ATLANTA,US,UNITED STATES,33.6408,-84.4272,2025-12-31T18:29:00.000-05:00,2025-12-31T18:29:00.000-05:00,2025-12-31T18:29:00.000-05:00,PT1H47M,0,CR9,CANADAIR REGIONAL JET 900 AND CHALLENGER 890,ENDEAVOR AIR
5032,2025-12-31,20251231+DL+5032,SCHEDULED,DL,DELTA AIR LINES INC.,SAV->JFK,SAV,JFK,CANCELLED,Cancelled,DTW,METROPOLITAN WAYNE COUNTY AIRPORT,DTT,DETROIT,US,UNITED STATES,42.2186,-83.3486,2025-12-31T10:25:00.000-05:00,2025-12-31T10:25:00.000-05:00,YUL,PIERRE E. TRUDEAU INTERNATIONAL AIRPORT,YMQ,MONTREAL,CA,CANADA,45.4639,-73.75,2025-12-31T12:18:00.000-05:00,2025-12-31T12:18:00.000-05:00,2025-12-31T12:18:00.000-05:00,PT1H53M,0,CR9,CANADAIR REGIONAL JET 900 AND CHALLENGER 890,ENDEAVOR AIR
5032,2025-12-31,20251231+DL+5032,SCHEDULED,DL,DELTA AIR LINES INC.,SAV->JFK,SAV,JFK,CANCELLED,Cancelled,ATL,HARTSFIELD-JACKSON INTERNATIONAL AIRPORT,ATL,ATLANTA,US,UNITED STATES,33.6408,-84.4272,2025-12-31T13:55:00.000-05:00,2025-12-31T13:55:00.000-05:00,XNA,NORTHWEST ARKANSAS REGIONAL AIRPORT,FYV,FAYETTEVILLE,US,UNITED STATES,36.2817,-94.3067,2025-12-31T14:57:00.000-06:00,2025-12-31T14:57:00.000-06:00,2025-12-31T14:57:00.000-06:00,PT2H2M,0,CR9,CANADAIR REGIONAL JET 900 AND CHALLENGER 890,ENDEAVOR AIR
5032,2025-12-31,20251231+DL+5032,SCHEDULED,DL,DELTA AIR LINES INC.,SAV->JFK,SAV,JFK,CANCELLED,Cancelled,JFK,JOHN F. KENNEDY INTERNATIONAL AIRPORT,NYC,NEW YORK,US,UNITED STATES,40.6386,-73.7769,2025-12-30T19:25:00.000-05:00,2025-12-30T19:25:00.000-05:00,DTW,METROPOLITAN WAYNE COUNTY AIRPORT,DTT,DETROIT,US,UNITED STATES,42.2186,-83.3486,2025-12-30T21:50:00.000-05:00,2025-12-30T21:50:00.000-05:00,2025-12-30T21:50:00.000-05:00,PT2H25M,0,CR9,CANADAIR REGIONAL JET 900 AND CHALLENGER 890,ENDEAVOR AIR
5032,2025-12-31,20251231+DL+5032,SCHEDULED,DL,DELTA AIR LINES INC.,SAV->JFK,SAV,JFK,SCHEDULED,Scheduled,SAV,HILTON HEAD INTERNATIONAL AIRPORT,SAV,SAVANNAH,US,UNITED STATES,32.1272,-81.1994,2025-12-31T07:25:00.000-05:00,2025-12-31T07:25:00.000-05:00,JFK,JOHN F. KENNEDY INTERNATIONAL AIRPORT,NYC,NEW YORK,US,UNITED STATES,40.6386,-73.7769,2025-12-31T09:39:00.000-05:00,2025-12-31T09:39:00.000-05:00,2025-12-31T09:39:00.000-05:00,PT2H14M,0,CR9,CANADAIR REGIONAL JET 900 AND CHALLENGER 890,ENDEAVOR AIR
5189,2025-12-31,20251231+DL+5189,SCHEDULED,DL,DELTA AIR LINES INC.,ATL->JAN,ATL,JAN,CANCELLED,Cancelled,DTW,METROPOLITAN WAYNE COUNTY AIRPORT,DTT,DETROIT,US,UNITED STATES,42.2186,-83.3486,2025-12-30T20:15:00.000-05:00,2025-12-30T20:15:00.000-05:00,GSP,GREENVILLE-SPARTANBURG INTERNATIONAL AIRPORT,GSP,GREENVILLE/SPARTANBURG,US,UNITED STATES,34.905,-82.21,2025-12-30T21:59:00.000-05:00,2025-12-30T21:59:00.000-05:00,2025-12-30T21:59:00.000-05:00,PT1H44M,0,CR9,CANADAIR REGIONAL JET 900 AND CHALLENGER 890,ENDEAVOR AIR
5189,2025-12-31,20251231+DL+5189,SCHEDULED,DL,DELTA AIR LINES INC.,ATL->JAN,ATL,JAN,CANCELLED,Cancelled,DSM,DES MOINES INTERNATIONAL AIRPORT,DSM,DES MOINES,US,UNITED STATES,41.5339,-93.6567,2025-12-31T16:12:00.000-06:00,2025-12-31T16:12:00.000-06:00,MSP,MINNEAPOLIS INTERNATIONAL AIRPORT,MSP,MINNEAPOLIS/ST PAUL,US,UNITED STATES,44.8861,-93.2178,2025-12-31T17:30:00.000-06:00,2025-12-31T17:30:00.000-06:00,2025-12-31T17:30:00.000-06:00,PT1H18M,0,CR9,CANADAIR REGIONAL JET 900 AND CHALLENGER 890,ENDEAVOR AIR
5189,2025-12-31,20251231+DL+5189,SCHEDULED,DL,DELTA AIR LINES INC.,ATL->JAN,ATL,JAN,SCHEDULED,Scheduled,ATL,HARTSFIELD-JACKSON INTERNATIONAL AIRPORT,ATL,ATLANTA,US,UNITED STATES,33.6408,-84.4272,2025-12-30T19:25:00.000-05:00,2025-12-30T19:25:00.000-05:00,JAN,MEDGAR W. EVERS INTERNATIONAL AIRPORT,JAN,JACKSON,US,UNITED STATES,32.3097,-90.0758,2025-12-30T19:49:00.000-06:00,2025-12-30T19:49:00.000-06:00,2025-12-30T19:49:00.000-06:00,PT1H24M,0,CR9,CANADAIR REGIONAL JET 900 AND CHALLENGER 890,ENDEAVOR AIR
1390,2025-12-31,20251231+DL+1390,SCHEDULED,DL,DELTA AIR LINES INC.,LGA->ORD->LGA,LGA,LGA,CANCELLED,Cancelled,ATL,HARTSFIELD-JACKSON INTERNATIONAL AIRPORT,ATL,ATLANTA,US,UNITED STATES,33.6408,-84.4272,2025-12-30T19:27:00.000-05:00,2025-12-30T19:27:00.000-05:00,STL,LAMBERT-ST. LOUIS INTERNATIONAL AIRPORT,STL,SAINT LOUIS,US,UNITED STATES,38.7472,-90.3644,2025-12-30T20:11:00.000-06:00,2025-12-30T20:11:00.000-06:00,2025-12-30T20:11:00.000-06:00,PT1H44M,0,739,BOEING 737-900 PASSENGER,DELTA AIR LINES INC.
1390,2025-12-31,20251231+DL+1390,SCHEDULED,DL,DELTA AIR LINES INC.,LGA->ORD->LGA,LGA,LGA,SCHEDULED,Scheduled,LGA,LA GUARDIA AIRPORT,NYC,NEW YORK,US,UNITED STATES,40.7794,-73.8758,2025-12-31T16:00:00.000-05:00,2025-12-31T16:00:00.000-05:00,ORD,O HARE INTERNATIONAL AIRPORT,CHI,CHICAGO,US,UNITED STATES,41.9781,-87.9061,2025-12-31T17:55:00.000-06:00,2025-12-31T17:55:00.000-06:00,2025-12-31T17:55:00.000-06:00,PT2H55M,0,221,AIRBUS A220-100 PASSENGER,DELTA AIR LINES INC.
1390,2025-12-31,20251231+DL+1390,SCHEDULED,DL,DELTA AIR LINES INC.,LGA->ORD->LGA,LGA,LGA,SCHEDULED,Scheduled,ORD,O HARE INTERNATIONAL AIRPORT,CHI,CHICAGO,US,UNITED STATES,41.9781,-87.9061,2025-12-31T19:00:00.000-06:00,2025-12-31T19:00:00.000-06:00,LGA,LA GUARDIA AIRPORT,NYC,NEW YORK,US,UNITED STATES,40.7794,-73.8758,2025-12-31T22:23:00.000-05:00,2025-12-31T22:23:00.000-05:00,2025-12-31T22:23:00.000-05:00,PT2H23M,0,221,AIRBUS A220-100 PASSENGER,DELTA AIR LINES INC.
5689,2025-12-31,20251231+DL+5689,SCHEDULED,DL,DELTA AIR LINES INC.,JFK->DCA,JFK,DCA,CANCELLED,Cancelled,BOS,EDWARD L. LOGAN INTERNATIONAL AIRPORT,BOS,BOSTON,US,UNITED STATES,42.365,-71.0053,2025-12-31T15:30:00.000-05:00,2025-12-31T15:30:00.000-05:00,DCA,RONALD REAGAN NATIONAL AIRPORT,WAS,WASHINGTON,US,UNITED STATES,38.8517,-77.0369,2025-12-31T17:26:00.000-05:00,2025-12-31T17:26:00.000-05:00,2025-12-31T17:26:00.000-05:00,PT1H56M,0,E75,EMBRAER 175,REPUBLIC AIRLINE  INC.
5689,2025-12-31,20251231+DL+5689,SCHEDULED,DL,DELTA AIR LINES INC.,JFK->DCA,JFK,DCA,SCHEDULED,Scheduled,JFK,JOHN F. KENNEDY INTERNATIONAL AIRPORT,NYC,NEW YORK,US,UNITED STATES,40.6386,-73.7769,2025-12-30T19:29:00.000-05:00,2025-12-30T19:29:00.000-05:00,DCA,RONALD REAGAN NATIONAL AIRPORT,WAS,WASHINGTON,US,UNITED STATES,38.8517,-77.0369,2025-12-30T21:07:00.000-05:00,2025-12-30T21:07:00.000-05:00,2025-12-30T21:07:00.000-05:00,PT1H38M,0,E75,EMBRAER 175,REPUBLIC AIRLINE  INC.
790,2025-12-31,20251231+DL+0790,SCHEDULED,DL,DELTA AIR LINES INC.,CHS->ATL,CHS,ATL,CANCELLED,Cancelled,ATL,HARTSFIELD-JACKSON INTERNATIONAL AIRPORT,ATL,ATLANTA,US,UNITED STATES,33.6408,-84.4272,2025-12-30T19:30:00.000-05:00,2025-12-30T19:30:00.000-05:00,BNA,NASHVILLE INTERNATIONAL AIRPORT,BNA,NASHVILLE,US,UNITED STATES,36.1267,-86.6819,2025-12-30T19:39:00.000-06:00,2025-12-30T19:39:00.000-06:00,2025-12-30T19:39:00.000-06:00,PT1H9M,0,739,BOEING 737-900 PASSENGER,DELTA AIR LINES INC.
790,2025-12-31,20251231+DL+0790,SCHEDULED,DL,DELTA AIR LINES INC.,CHS->ATL,CHS,ATL,SCHEDULED,Scheduled,CHS,CHARLESTON INTERNATIONAL AIRFORCE BASE,CHS,CHARLESTON,US,UNITED STATES,32.8992,-80.0389,2025-12-31T17:27:00.000-05:00,2025-12-31T17:27:00.000-05:00,ATL,HARTSFIELD-JACKSON INTERNATIONAL AIRPORT,ATL,ATLANTA,US,UNITED STATES,33.6408,-84.4272,2025-12-31T18:45:00.000-05:00,2025-12-31T18:45:00.000-05:00,2025-12-31T18:45:00.000-05:00,PT1H18M,0,717,BOEING 717-200,DELTA AIR LINES INC.
1502,2025-12-31,20251231+DL+1502,SCHEDULED,DL,DELTA AIR LINES INC.,OGG->LAX,OGG,LAX,CANCELLED,Cancelled,MSP,MINNEAPOLIS INTERNATIONAL AIRPORT,MSP,MINNEAPOLIS/ST PAUL,US,UNITED STATES,44.8861,-93.2178,2025-12-30T18:30:00.000-06:00,2025-12-30T18:30:00.000-06:00,BOS,EDWARD L. LOGAN INTERNATIONAL AIRPORT,BOS,BOSTON,US,UNITED STATES,42.365,-71.0053,2025-12-30T22:25:00.000-05:00,2025-12-30T22:25:00.000-05:00,2025-12-30T22:25:00.000-05:00,PT2H55M,0,321,AIRBUS A321,DELTA AIR LINES INC.
1502,2025-12-31,20251231+DL+1502,SCHEDULED,DL,DELTA AIR LINES INC.,OGG->LAX,OGG,LAX,SCHEDULED,Scheduled,OGG,KAHULUI AIRPORT,OGG,KAHULUI,US,UNITED STATES,20.9006,-156.4336,2025-12-30T23:15:00.000-10:00,2025-12-30T23:15:00.000-10:00,LAX,LOS ANGELES INTERNATIONAL AIRPORT,LAX,LOS ANGELES,US,UNITED STATES,33.9422,-118.4072,2025-12-31T06:25:00.000-08:00,2025-12-31T06:25:00.000-08:00,2025-12-31T06:25:00.000-08:00,PT5H10M,0,76W,BOEING 767-300 WINGLETS PASSENGER,DELTA AIR LINES INC.
1683,2025-12-31,20251231+DL+1683,SCHEDULED,DL,DELTA AIR LINES INC.,TLH->ATL,TLH,ATL,CANCELLED,Cancelled,MSP,MINNEAPOLIS INTERNATIONAL AIRPORT,MSP,MINNEAPOLIS/ST PAUL,US,UNITED STATES,44.8861,-93.2178,2025-12-30T18:30:00.000-06:00,2025-12-30T18:30:00.000-06:00,FLL,FORT LAUDERDALE INTERNATIONAL AIRPORT,FLL,FORT LAUDERDALE,US,UNITED STATES,26.0742,-80.1517,2025-12-30T23:09:00.000-05:00,2025-12-30T23:09:00.000-05:00,2025-12-30T23:09:00.000-05:00,PT3H39M,0,321,AIRBUS A321,DELTA AIR LINES INC.
1683,2025-12-31,20251231+DL+1683,SCHEDULED,DL,DELTA AIR LINES INC.,TLH->ATL,TLH,ATL,SCHEDULED,Scheduled,TLH,TALLAHASSEE INTERNATIONAL AIRPORT,TLH,TALLAHASSEE,US,UNITED STATES,30.3997,-84.3519,2025-12-31T08:15:00.000-05:00,2025-12-31T08:15:00.000-05:00,ATL,HARTSFIELD-JACKSON INTERNATIONAL AIRPORT,ATL,ATLANTA,US,UNITED STATES,33.6408,-84.4272,2025-12-31T09:28:00.000-05:00,2025-12-31T09:28:00.000-05:00,2025-12-31T09:28:00.000-05:00,PT1H13M,0,739,BOEING 737-900 PASSENGER,DELTA AIR LINES INC.
1736,2025-12-31,20251231+DL+1736,SCHEDULED,DL,DELTA AIR LINES INC.,ATL->RSW,ATL,RSW,CANCELLED,Cancelled,GSO,PIEDMONT TRIAD INTERNATIONAL AIRPORT,GSO,GREENSBORO/HIGH POINT,US,UNITED STATES,36.0919,-79.9428,2025-12-31T12:30:00.000-05:00,2025-12-31T12:30:00.000-05:00,ATL,HARTSFIELD-JACKSON INTERNATIONAL AIRPORT,ATL,ATLANTA,US,UNITED STATES,33.6408,-84.4272,2025-12-31T13:50:00.000-05:00,2025-12-31T13:50:00.000-05:00,2025-12-31T13:50:00.000-05:00,PT1H20M,0,739,BOEING 737-900 PASSENGER,DELTA AIR LINES INC.
1736,2025-12-31,20251231+DL+1736,SCHEDULED,DL,DELTA AIR LINES INC.,ATL->RSW,ATL,RSW,CANCELLED,Cancelled,ATL,HARTSFIELD-JACKSON INTERNATIONAL AIRPORT,ATL,ATLANTA,US,UNITED STATES,33.6408,-84.4272,2025-12-31T10:05:00.000-05:00,2025-12-31T10:05:00.000-05:00,GSO,PIEDMONT TRIAD INTERNATIONAL AIRPORT,GSO,GREENSBORO/HIGH POINT,US,UNITED STATES,36.0919,-79.9428,2025-12-31T11:23:00.000-05:00,2025-12-31T11:23:00.000-05:00,2025-12-31T11:23:00.000-05:00,PT1H18M,0,739,BOEING 737-900 PASSENGER,DELTA AIR LINES INC.
1736,2025-12-31,20251231+DL+1736,SCHEDULED,DL,DELTA AIR LINES INC.,ATL->RSW,ATL,RSW,SCHEDULED,Scheduled,ATL,HARTSFIELD-JACKSON INTERNATIONAL AIRPORT,ATL,ATLANTA,US,UNITED STATES,33.6408,-84.4272,2025-12-30T19:30:00.000-05:00,2025-12-30T19:30:00.000-05:00,RSW,SOUTHWEST FLORIDA INTERNATIONAL AIRPORT,FMY,FORT MYERS,US,UNITED STATES,26.5333,-81.75,2025-12-30T21:11:00.000-05:00,2025-12-30T21:11:00.000-05:00,2025-12-30T21:11:00.000-05:00,PT1H41M,0,757,BOEING 757 PASSENGER,DELTA AIR LINES INC.
2762,2025-12-31,20251231+DL+2762,SCHEDULED,DL,DELTA AIR LINES INC.,LAS->JFK,LAS,JFK,CANCELLED,Cancelled,SLC,SALT LAKE CITY INTERNATIONAL AIRPORT,SLC,SALT LAKE CITY,US,UNITED STATES,40.7842,-111.9669,2025-12-30T17:30:00.000-07:00,2025-12-30T17:30:00.000-07:00,SFO,SAN FRANCISCO INTERNATIONAL AIRPORT,SFO,SAN FRANCISCO,US,UNITED STATES,37.6194,-122.3728,2025-12-30T18:34:00.000-08:00,2025-12-30T18:34:00.000-08:00,2025-12-30T18:34:00.000-08:00,PT2H4M,0,738,BOEING 737-800 PASSENGER,DELTA AIR LINES INC.
2762,2025-12-31,20251231+DL+2762,SCHEDULED,DL,DELTA AIR LINES INC.,LAS->JFK,LAS,JFK,CANCELLED,Cancelled,SFO,SAN FRANCISCO INTERNATIONAL AIRPORT,SFO,SAN FRANCISCO,US,UNITED STATES,37.6194,-122.3728,2025-12-30T19:40:00.000-08:00,2025-12-30T19:40:00.000-08:00,SLC,SALT LAKE CITY INTERNATIONAL AIRPORT,SLC,SALT LAKE CITY,US,UNITED STATES,40.7842,-111.9669,2025-12-30T22:40:00.000-07:00,2025-12-30T22:40:00.000-07:00,2025-12-30T22:40:00.000-07:00,PT2H,0,738,BOEING 737-800 PASSENGER,DELTA AIR LINES INC.
2762,2025-12-31,20251231+DL+2762,SCHEDULED,DL,DELTA AIR LINES INC.,LAS->JFK,LAS,JFK,SCHEDULED,Scheduled,LAS,HARRY REID INTL,LAS,LAS VEGAS,US,UNITED STATES,36.08,-115.1522,2025-12-31T10:35:00.000-08:00,2025-12-31T10:35:00.000-08:00,JFK,JOHN F. KENNEDY INTERNATIONAL AIRPORT,NYC,NEW YORK,US,UNITED STATES,40.6386,-73.7769,2025-12-31T18:45:00.000-05:00,2025-12-31T18:45:00.000-05:00,2025-12-31T18:45:00.000-05:00,PT5H10M,0,32Q,AIRBUS A321NEO,DELTA AIR LINES INC.
5163,2025-12-31,20251231+DL+5163,SCHEDULED,DL,DELTA AIR LINES INC.,ATL->SHV,ATL,SHV,CANCELLED,Cancelled,CLT,DOUGLAS INTERNATIONAL AIRPORT,CLT,CHARLOTTE,US,UNITED STATES,35.2192,-80.9358,2025-12-31T19:59:00.000-05:00,2025-12-31T19:59:00.000-05:00,ATL,HARTSFIELD-JACKSON INTERNATIONAL AIRPORT,ATL,ATLANTA,US,UNITED STATES,33.6408,-84.4272,2025-12-31T21:32:00.000-05:00,2025-12-31T21:32:00.000-05:00,2025-12-31T21:32:00.000-05:00,PT1H33M,0,CR9,CANADAIR REGIONAL JET 900 AND CHALLENGER 890,ENDEAVOR AIR
5163,2025-12-31,20251231+DL+5163,SCHEDULED,DL,DELTA AIR LINES INC.,ATL->SHV,ATL,SHV,CANCELLED,Cancelled,ATL,HARTSFIELD-JACKSON INTERNATIONAL AIRPORT,ATL,ATLANTA,US,UNITED STATES,33.6408,-84.4272,2025-12-31T17:59:00.000-05:00,2025-12-31T17:59:00.000-05:00,CLT,DOUGLAS INTERNATIONAL AIRPORT,CLT,CHARLOTTE,US,UNITED STATES,35.2192,-80.9358,2025-12-31T19:14:00.000-05:00,2025-12-31T19:14:00.000-05:00,2025-12-31T19:14:00.000-05:00,PT1H15M,0,CR9,CANADAIR REGIONAL JET 900 AND CHALLENGER 890,ENDEAVOR AIR
5163,2025-12-31,20251231+DL+5163,SCHEDULED,DL,DELTA AIR LINES INC.,ATL->SHV,ATL,SHV,CANCELLED,Cancelled,YUL,PIERRE E. TRUDEAU INTERNATIONAL AIRPORT,YMQ,MONTREAL,CA,CANADA,45.4639,-73.75,2025-12-31T12:25:00.000-05:00,2025-12-31T12:25:00.000-05:00,JFK,JOHN F. KENNEDY INTERNATIONAL AIRPORT,NYC,NEW YORK,US,UNITED STATES,40.6386,-73.7769,2025-12-31T14:08:00.000-05:00,2025-12-31T14:08:00.000-05:00,2025-12-31T14:08:00.000-05:00,PT1H43M,0,CR9,CANADAIR REGIONAL JET 900 AND CHALLENGER 890,ENDEAVOR AIR
5163,2025-12-31,20251231+DL+5163,SCHEDULED,DL,DELTA AIR LINES INC.,ATL->SHV,ATL,SHV,SCHEDULED,Scheduled,ATL,HARTSFIELD-JACKSON INTERNATIONAL AIRPORT,ATL,ATLANTA,US,UNITED STATES,33.6408,-84.4272,2025-12-30T19:30:00.000-05:00,2025-12-30T19:30:00.000-05:00,SHV,SHREVEPORT REGIONAL AIRPORT,SHV,SHREVEPORT,US,UNITED STATES,32.4469,-93.75,2025-12-30T20:17:00.000-06:00,2025-12-30T20:17:00.000-06:00,2025-12-30T20:17:00.000-06:00,PT1H47M,0,CR9,CANADAIR REGIONAL JET 900 AND CHALLENGER 890,ENDEAVOR AIR
3802,2025-12-31,20251231+DL+3802,SCHEDULED,DL,DELTA AIR LINES INC.,LAX->PHX->LAX,LAX,LAX,CANCELLED,Cancelled,SEA,SEATTLE-TACOMA INTERNATIONAL AIRPORT,SEA,SEATTLE,US,UNITED STATES,47.4472,-122.3056,2025-12-31T12:10:00.000-08:00,2025-12-31T12:10:00.000-08:00,PDX,PORTLAND INTERNATIONAL AIRPORT,PDX,PORTLAND,US,UNITED STATES,45.5892,-122.595,2025-12-31T13:18:00.000-08:00,2025-12-31T13:18:00.000-08:00,2025-12-31T13:18:00.000-08:00,PT1H8M,0,E7W,EMBRAER 175 (ENHANCED WINGLETS),SKYWEST AIRLINES
3802,2025-12-31,20251231+DL+3802,SCHEDULED,DL,DELTA AIR LINES INC.,LAX->PHX->LAX,LAX,LAX,CANCELLED,Cancelled,ATL,HARTSFIELD-JACKSON INTERNATIONAL AIRPORT,ATL,ATLANTA,US,UNITED STATES,33.6408,-84.4272,2025-12-30T19:34:00.000-05:00,2025-12-30T19:34:00.000-05:00,SBN,SOUTH BEND INTERNATIONAL AIRPORT,SBN,SOUTH BEND,US,UNITED STATES,41.7044,-86.3125,2025-12-30T21:28:00.000-05:00,2025-12-30T21:28:00.000-05:00,2025-12-30T21:28:00.000-05:00,PT1H54M,0,CR9,CANADAIR REGIONAL JET 900 AND CHALLENGER 890,SKYWEST AIRLINES
3802,2025-12-31,20251231+DL+3802,SCHEDULED,DL,DELTA AIR LINES INC.,LAX->PHX->LAX,LAX,LAX,CANCELLED,Cancelled,PDX,PORTLAND INTERNATIONAL AIRPORT,PDX,PORTLAND,US,UNITED STATES,45.5892,-122.595,2025-12-31T13:38:00.000-08:00,2025-12-31T13:38:00.000-08:00,SEA,SEATTLE-TACOMA INTERNATIONAL AIRPORT,SEA,SEATTLE,US,UNITED STATES,47.4472,-122.3056,2025-12-31T14:40:00.000-08:00,2025-12-31T14:40:00.000-08:00,2025-12-31T14:40:00.000-08:00,PT1H2M,0,E7W,EMBRAER 175 (ENHANCED WINGLETS),SKYWEST AIRLINES
3802,2025-12-31,20251231+DL+3802,SCHEDULED,DL,DELTA AIR LINES INC.,LAX->PHX->LAX,LAX,LAX,SCHEDULED,Scheduled,LAX,LOS ANGELES INTERNATIONAL AIRPORT,LAX,LOS ANGELES,US,UNITED STATES,33.9422,-118.4072,2025-12-31T11:20:00.000-08:00,2025-12-31T11:20:00.000-08:00,PHX,SKY HARBOR INTERNATIONAL AIRPORT,PHX,PHOENIX,US,UNITED STATES,33.4353,-112.0119,2025-12-31T13:52:00.000-07:00,2025-12-31T13:52:00.000-07:00,2025-12-31T13:52:00.000-07:00,PT1H32M,0,E7W,EMBRAER 175 (ENHANCED WINGLETS),SKYWEST AIRLINES
3802,2025-12-31,20251231+DL+3802,SCHEDULED,DL,DELTA AIR LINES INC.,LAX->PHX->LAX,LAX,LAX,SCHEDULED,Scheduled,PHX,SKY HARBOR INTERNATIONAL AIRPORT,PHX,PHOENIX,US,UNITED STATES,33.4353,-112.0119,2025-12-31T14:33:00.000-07:00,2025-12-31T14:33:00.000-07:00,LAX,LOS ANGELES INTERNATIONAL AIRPORT,LAX,LOS ANGELES,US,UNITED STATES,33.9422,-118.4072,2025-12-31T15:15:00.000-08:00,2025-12-31T15:15:00.000-08:00,2025-12-31T15:15:00.000-08:00,PT1H42M,0,E7W,EMBRAER 175 (ENHANCED WINGLETS),SKYWEST AIRLINES
3823,2025-12-31,20251231+DL+3823,SCHEDULED,DL,DELTA AIR LINES INC.,MSP->FSD->MSP,MSP,MSP,CANCELLED,Cancelled,MSP,MINNEAPOLIS INTERNATIONAL AIRPORT,MSP,MINNEAPOLIS/ST PAUL,US,UNITED STATES,44.8861,-93.2178,2025-12-30T18:35:00.000-06:00,2025-12-30T18:35:00.000-06:00,YWG,J.A. RICHARDSON INTERNATIONAL AIRPORT,YWG,WINNIPEG,CA,CANADA,49.9,-97.2333,2025-12-30T20:08:00.000-06:00,2025-12-30T20:08:00.000-06:00,2025-12-30T20:08:00.000-06:00,PT1H33M,0,E7W,EMBRAER 175 (ENHANCED WINGLETS),SKYWEST AIRLINES
3823,2025-12-31,20251231+DL+3823,SCHEDULED,DL,DELTA AIR LINES INC.,MSP->FSD->MSP,MSP,MSP,SCHEDULED,Scheduled,MSP,MINNEAPOLIS INTERNATIONAL AIRPORT,MSP,MINNEAPOLIS/ST PAUL,US,UNITED STATES,44.8861,-93.2178,2025-12-31T11:10:00.000-06:00,2025-12-31T11:10:00.000-06:00,FSD,JOE FOSS FIELD,FSD,SIOUX FALLS,US,UNITED STATES,43.5789,-96.7408,2025-12-31T12:21:00.000-06:00,2025-12-31T12:21:00.000-06:00,2025-12-31T12:21:00.000-06:00,PT1H11M,0,E7W,EMBRAER 175 (ENHANCED WINGLETS),SKYWEST AIRLINES
3823,2025-12-31,20251231+DL+3823,SCHEDULED,DL,DELTA AIR LINES INC.,MSP->FSD->MSP,MSP,MSP,SCHEDULED,Scheduled,FSD,JOE FOSS FIELD,FSD,SIOUX FALLS,US,UNITED STATES,43.5789,-96.7408,2025-12-31T13:25:00.000-06:00,2025-12-31T13:25:00.000-06:00,MSP,MINNEAPOLIS INTERNATIONAL AIRPORT,MSP,MINNEAPOLIS/ST PAUL,US,UNITED STATES,44.8861,-93.2178,2025-12-31T14:35:00.000-06:00,2025-12-31T14:35:00.000-06:00,2025-12-31T14:35:00.000-06:00,PT1H10M,0,E7W,EMBRAER 175 (ENHANCED WINGLETS),SKYWEST AIRLINES
5282,2025-12-31,20251231+DL+5282,SCHEDULED,DL,DELTA AIR LINES INC.,ATL->AGS->ATL,ATL,ATL,CANCELLED,Cancelled,ATL,HARTSFIELD-JACKSON INTERNATIONAL AIRPORT,ATL,ATLANTA,US,UNITED STATES,33.6408,-84.4272,2025-12-30T19:37:00.000-05:00,2025-12-30T19:37:00.000-05:00,CHA,CHATTANOOGA METROPOLITAN AIRPORT,CHA,CHATTANOOGA,US,UNITED STATES,35.0364,-85.2036,2025-12-30T20:31:00.000-05:00,2025-12-30T20:31:00.000-05:00,2025-12-30T20:31:00.000-05:00,PT54M,0,CR9,CANADAIR REGIONAL JET 900 AND CHALLENGER 890,ENDEAVOR AIR
5282,2025-12-31,20251231+DL+5282,SCHEDULED,DL,DELTA AIR LINES INC.,ATL->AGS->ATL,ATL,ATL,SCHEDULED,Scheduled,ATL,HARTSFIELD-JACKSON INTERNATIONAL AIRPORT,ATL,ATLANTA,US,UNITED STATES,33.6408,-84.4272,2025-12-31T17:15:00.000-05:00,2025-12-31T17:15:00.000-05:00,AGS,AUGUSTA REGIONAL (BUSH FIELD) AIRPORT,AGS,AUGUSTA,US,UNITED STATES,33.3664,-81.9669,2025-12-31T18:10:00.000-05:00,2025-12-31T18:10:00.000-05:00,2025-12-31T18:10:00.000-05:00,PT55M,0,CR9,CANADAIR REGIONAL JET 900 AND CHALLENGER 890,ENDEAVOR AIR
5282,2025-12-31,20251231+DL+5282,SCHEDULED,DL,DELTA AIR LINES INC.,ATL->AGS->ATL,ATL,ATL,SCHEDULED,Scheduled,AGS,AUGUSTA REGIONAL (BUSH FIELD) AIRPORT,AGS,AUGUSTA,US,UNITED STATES,33.3664,-81.9669,2025-12-31T18:54:00.000-05:00,2025-12-31T18:54:00.000-05:00,ATL,HARTSFIELD-JACKSON INTERNATIONAL AIRPORT,ATL,ATLANTA,US,UNITED STATES,33.6408,-84.4272,2025-12-31T20:04:00.000-05:00,2025-12-31T20:04:00.000-05:00,2025-12-31T20:04:00.000-05:00,PT1H10M,0,CR9,CANADAIR REGIONAL JET 900 AND CHALLENGER 890,ENDEAVOR AIR
2826,2025-12-31,20251231+DL+2826,SCHEDULED,DL,DELTA AIR LINES INC.,MSP->BIS,MSP,BIS,CANCELLED,Cancelled,DTW,METROPOLITAN WAYNE COUNTY AIRPORT,DTT,DETROIT,US,UNITED STATES,42.2186,-83.3486,2025-12-31T08:35:00.000-05:00,2025-12-31T08:35:00.000-05:00,MCI,KANSAS CITY INTERNATIONAL AIRPORT,MKC,KANSAS CITY,US,UNITED STATES,39.2928,-94.7267,2025-12-31T09:35:00.000-06:00,2025-12-31T09:35:00.000-06:00,2025-12-31T09:35:00.000-06:00,PT2H,0,717,BOEING 717-200,DELTA AIR LINES INC.
2826,2025-12-31,20251231+DL+2826,SCHEDULED,DL,DELTA AIR LINES INC.,MSP->BIS,MSP,BIS,CANCELLED,Cancelled,MCI,KANSAS CITY INTERNATIONAL AIRPORT,MKC,KANSAS CITY,US,UNITED STATES,39.2928,-94.7267,2025-12-31T10:20:00.000-06:00,2025-12-31T10:20:00.000-06:00,DTW,METROPOLITAN WAYNE COUNTY AIRPORT,DTT,DETROIT,US,UNITED STATES,42.2186,-83.3486,2025-12-31T13:14:00.000-05:00,2025-12-31T13:14:00.000-05:00,2025-12-31T13:14:00.000-05:00,PT1H54M,0,717,BOEING 717-200,DELTA AIR LINES INC.
2826,2025-12-31,20251231+DL+2826,SCHEDULED,DL,DELTA AIR LINES INC.,MSP->BIS,MSP,BIS,SCHEDULED,Scheduled,MSP,MINNEAPOLIS INTERNATIONAL AIRPORT,MSP,MINNEAPOLIS/ST PAUL,US,UNITED STATES,44.8861,-93.2178,2025-12-30T18:40:00.000-06:00,2025-12-30T18:40:00.000-06:00,BIS,BISMARCK MUNICIPAL AIRPORT,BIS,BISMARCK,US,UNITED STATES,46.7739,-100.75,2025-12-30T20:11:00.000-06:00,2025-12-30T20:11:00.000-06:00,2025-12-30T20:11:00.000-06:00,PT1H31M,0,320,AIRBUS A320,DELTA AIR LINES INC.
2999,2025-12-31,20251231+DL+2999,SCHEDULED,DL,DELTA AIR LINES INC.,SLC->BOI->SLC,SLC,SLC,CANCELLED,Cancelled,ATL,HARTSFIELD-JACKSON INTERNATIONAL AIRPORT,ATL,ATLANTA,US,UNITED STATES,33.6408,-84.4272,2025-12-31T08:20:00.000-05:00,2025-12-31T08:20:00.000-05:00,MKE,GENERAL MITCHELL INTERNATIONAL AIRPORT,MKE,MILWAUKEE,US,UNITED STATES,42.9503,-87.8972,2025-12-31T09:21:00.000-06:00,2025-12-31T09:21:00.000-06:00,2025-12-31T09:21:00.000-06:00,PT2H1M,0,739,BOEING 737-900 PASSENGER,DELTA AIR LINES INC.
2999,2025-12-31,20251231+DL+2999,SCHEDULED,DL,DELTA AIR LINES INC.,SLC->BOI->SLC,SLC,SLC,CANCELLED,Cancelled,MKE,GENERAL MITCHELL INTERNATIONAL AIRPORT,MKE,MILWAUKEE,US,UNITED STATES,42.9503,-87.8972,2025-12-31T10:25:00.000-06:00,2025-12-31T10:25:00.000-06:00,ATL,HARTSFIELD-JACKSON INTERNATIONAL AIRPORT,ATL,ATLANTA,US,UNITED STATES,33.6408,-84.4272,2025-12-31T13:25:00.000-05:00,2025-12-31T13:25:00.000-05:00,2025-12-31T13:25:00.000-05:00,PT2H,0,739,BOEING 737-900 PASSENGER,DELTA AIR LINES INC.
2999,2025-12-31,20251231+DL+2999,SCHEDULED,DL,DELTA AIR LINES INC.,SLC->BOI->SLC,SLC,SLC,SCHEDULED,Scheduled,SLC,SALT LAKE CITY INTERNATIONAL AIRPORT,SLC,SALT LAKE CITY,US,UNITED STATES,40.7842,-111.9669,2025-12-30T17:40:00.000-07:00,2025-12-30T17:40:00.000-07:00,BOI,BOISE AIR TERMINAL (GOWEN FIELD),BOI,BOISE,US,UNITED STATES,43.5653,-116.225,2025-12-30T18:53:00.000-07:00,2025-12-30T18:53:00.000-07:00,2025-12-30T18:53:00.000-07:00,PT1H13M,0,221,AIRBUS A220-100 PASSENGER,DELTA AIR LINES INC.
2999,2025-12-31,20251231+DL+2999,SCHEDULED,DL,DELTA AIR LINES INC.,SLC->BOI->SLC,SLC,SLC,SCHEDULED,Scheduled,BOI,BOISE AIR TERMINAL (GOWEN FIELD),BOI,BOISE,US,UNITED STATES,43.5653,-116.225,2025-12-30T19:55:00.000-07:00,2025-12-30T19:55:00.000-07:00,SLC,SALT LAKE CITY INTERNATIONAL AIRPORT,SLC,SALT LAKE CITY,US,UNITED STATES,40.7842,-111.9669,2025-12-30T21:18:00.000-07:00,2025-12-30T21:18:00.000-07:00,2025-12-30T21:18:00.000-07:00,PT1H23M,0,221,AIRBUS A220-100 PASSENGER,DELTA AIR LINES INC.
3712,2025-12-31,20251231+DL+3712,SCHEDULED,DL,DELTA AIR LINES INC.,LAX->SMF->LAX,LAX,LAX,CANCELLED,Cancelled,SDF,INTERNATIONAL STANDIFORD FIELD,SDF,LOUISVILLE,US,UNITED STATES,38.1797,-85.7386,2025-12-31T13:20:00.000-05:00,2025-12-31T13:20:00.000-05:00,MSP,MINNEAPOLIS INTERNATIONAL AIRPORT,MSP,MINNEAPOLIS/ST PAUL,US,UNITED STATES,44.8861,-93.2178,2025-12-31T14:38:00.000-06:00,2025-12-31T14:38:00.000-06:00,2025-12-31T14:38:00.000-06:00,PT2H18M,0,E7W,EMBRAER 175 (ENHANCED WINGLETS),SKYWEST AIRLINES
3712,2025-12-31,20251231+DL+3712,SCHEDULED,DL,DELTA AIR LINES INC.,LAX->SMF->LAX,LAX,LAX,CANCELLED,Cancelled,MSP,MINNEAPOLIS INTERNATIONAL AIRPORT,MSP,MINNEAPOLIS/ST PAUL,US,UNITED STATES,44.8861,-93.2178,2025-12-31T10:00:00.000-06:00,2025-12-31T10:00:00.000-06:00,SDF,INTERNATIONAL STANDIFORD FIELD,SDF,LOUISVILLE,US,UNITED STATES,38.1797,-85.7386,2025-12-31T13:04:00.000-05:00,2025-12-31T13:04:00.000-05:00,2025-12-31T13:04:00.000-05:00,PT2H4M,0,E7W,EMBRAER 175 (ENHANCED WINGLETS),SKYWEST AIRLINES
3712,2025-12-31,20251231+DL+3712,SCHEDULED,DL,DELTA AIR LINES INC.,LAX->SMF->LAX,LAX,LAX,SCHEDULED,Scheduled,LAX,LOS ANGELES INTERNATIONAL AIRPORT,LAX,LOS ANGELES,US,UNITED STATES,33.9422,-118.4072,2025-12-30T16:40:00.000-08:00,2025-12-30T16:40:00.000-08:00,SMF,SACRAMENTO INTERNATIONAL AIRPORT,SAC,SACRAMENTO,US,UNITED STATES,38.6956,-121.5983,2025-12-30T18:11:00.000-08:00,2025-12-30T18:11:00.000-08:00,2025-12-30T18:11:00.000-08:00,PT1H31M,0,E7W,EMBRAER 175 (ENHANCED WINGLETS),SKYWEST AIRLINES
3712,2025-12-31,20251231+DL+3712,SCHEDULED,DL,DELTA AIR LINES INC.,LAX->SMF->LAX,LAX,LAX,SCHEDULED,Scheduled,SMF,SACRAMENTO INTERNATIONAL AIRPORT,SAC,SACRAMENTO,US,UNITED STATES,38.6956,-121.5983,2025-12-30T18:59:00.000-08:00,2025-12-30T18:59:00.000-08:00,LAX,LOS ANGELES INTERNATIONAL AIRPORT,LAX,LOS ANGELES,US,UNITED STATES,33.9422,-118.4072,2025-12-30T20:39:00.000-08:00,2025-12-30T20:39:00.000-08:00,2025-12-30T20:39:00.000-08:00,PT1H40M,0,E7W,EMBRAER 175 (ENHANCED WINGLETS),SKYWEST AIRLINES
5622,2025-12-31,20251231+DL+5622,SCHEDULED,DL,DELTA AIR LINES INC.,ORD->JFK,ORD,JFK,CANCELLED,Cancelled,JFK,JOHN F. KENNEDY INTERNATIONAL AIRPORT,NYC,NEW YORK,US,UNITED STATES,40.6386,-73.7769,2025-12-30T19:40:00.000-05:00,2025-12-30T19:40:00.000-05:00,JAX,JACKSONVILLE INTERNATIONAL AIRPORT,JAX,JACKSONVILLE,US,UNITED STATES,30.4925,-81.6897,2025-12-30T22:23:00.000-05:00,2025-12-30T22:23:00.000-05:00,2025-12-30T22:23:00.000-05:00,PT2H43M,0,E75,EMBRAER 175,REPUBLIC AIRLINE  INC.
5622,2025-12-31,20251231+DL+5622,SCHEDULED,DL,DELTA AIR LINES INC.,ORD->JFK,ORD,JFK,SCHEDULED,Scheduled,ORD,O HARE INTERNATIONAL AIRPORT,CHI,CHICAGO,US,UNITED STATES,41.9781,-87.9061,2025-12-31T13:25:00.000-06:00,2025-12-31T13:25:00.000-06:00,JFK,JOHN F. KENNEDY INTERNATIONAL AIRPORT,NYC,NEW YORK,US,UNITED STATES,40.6386,-73.7769,2025-12-31T16:50:00.000-05:00,2025-12-31T16:50:00.000-05:00,2025-12-31T16:50:00.000-05:00,PT2H25M,0,E75,EMBRAER 175,REPUBLIC AIRLINE  INC.
691,2025-12-31,20251231+DL+0691,SCHEDULED,DL,DELTA AIR LINES INC.,ATL->PDX,ATL,PDX,CANCELLED,Cancelled,DCA,RONALD REAGAN NATIONAL AIRPORT,WAS,WASHINGTON,US,UNITED STATES,38.8517,-77.0369,2025-12-31T20:30:00.000-05:00,2025-12-31T20:30:00.000-05:00,ATL,HARTSFIELD-JACKSON INTERNATIONAL AIRPORT,ATL,ATLANTA,US,UNITED STATES,33.6408,-84.4272,2025-12-31T22:34:00.000-05:00,2025-12-31T22:34:00.000-05:00,2025-12-31T22:34:00.000-05:00,PT2H4M,0,320,AIRBUS A320,DELTA AIR LINES INC.
691,2025-12-31,20251231+DL+0691,SCHEDULED,DL,DELTA AIR LINES INC.,ATL->PDX,ATL,PDX,CANCELLED,Cancelled,ATL,HARTSFIELD-JACKSON INTERNATIONAL AIRPORT,ATL,ATLANTA,US,UNITED STATES,33.6408,-84.4272,2025-12-31T17:45:00.000-05:00,2025-12-31T17:45:00.000-05:00,DCA,RONALD REAGAN NATIONAL AIRPORT,WAS,WASHINGTON,US,UNITED STATES,38.8517,-77.0369,2025-12-31T19:31:00.000-05:00,2025-12-31T19:31:00.000-05:00,2025-12-31T19:31:00.000-05:00,PT1H46M,0,320,AIRBUS A320,DELTA AIR LINES INC.
691,2025-12-31,20251231+DL+0691,SCHEDULED,DL,DELTA AIR LINES INC.,ATL->PDX,ATL,PDX,SCHEDULED,Scheduled,ATL,HARTSFIELD-JACKSON INTERNATIONAL AIRPORT,ATL,ATLANTA,US,UNITED STATES,33.6408,-84.4272,2025-12-30T19:45:00.000-05:00,2025-12-30T19:45:00.000-05:00,PDX,PORTLAND INTERNATIONAL AIRPORT,PDX,PORTLAND,US,UNITED STATES,45.5892,-122.595,2025-12-30T22:11:00.000-08:00,2025-12-30T22:11:00.000-08:00,2025-12-30T22:11:00.000-08:00,PT5H26M,0,32Q,AIRBUS A321NEO,DELTA AIR LINES INC.
1130,2025-12-31,20251231+DL+1130,SCHEDULED,DL,DELTA AIR LINES INC.,ATL->MCI,ATL,MCI,CANCELLED,Cancelled,MCO,ORLANDO INTERNATIONAL AIRPORT,ORL,ORLANDO,US,UNITED STATES,28.4319,-81.3247,2025-12-31T10:25:00.000-05:00,2025-12-31T10:25:00.000-05:00,MSP,MINNEAPOLIS INTERNATIONAL AIRPORT,MSP,MINNEAPOLIS/ST PAUL,US,UNITED STATES,44.8861,-93.2178,2025-12-31T13:10:00.000-06:00,2025-12-31T13:10:00.000-06:00,2025-12-31T13:10:00.000-06:00,PT3H45M,0,321,AIRBUS A321,DELTA AIR LINES INC.
1130,2025-12-31,20251231+DL+1130,SCHEDULED,DL,DELTA AIR LINES INC.,ATL->MCI,ATL,MCI,SCHEDULED,Scheduled,ATL,HARTSFIELD-JACKSON INTERNATIONAL AIRPORT,ATL,ATLANTA,US,UNITED STATES,33.6408,-84.4272,2025-12-30T19:45:00.000-05:00,2025-12-30T19:45:00.000-05:00,MCI,KANSAS CITY INTERNATIONAL AIRPORT,MKC,KANSAS CITY,US,UNITED STATES,39.2928,-94.7267,2025-12-30T20:56:00.000-06:00,2025-12-30T20:56:00.000-06:00,2025-12-30T20:56:00.000-06:00,PT2H11M,0,739,BOEING 737-900 PASSENGER,DELTA AIR LINES INC.
1303,2025-12-31,20251231+DL+1303,SCHEDULED,DL,DELTA AIR LINES INC.,ATL->CLE->ATL,ATL,ATL,CANCELLED,Cancelled,DTW,METROPOLITAN WAYNE COUNTY AIRPORT,DTT,DETROIT,US,UNITED STATES,42.2186,-83.3486,2025-12-30T19:45:00.000-05:00,2025-12-30T19:45:00.000-05:00,MSP,MINNEAPOLIS INTERNATIONAL AIRPORT,MSP,MINNEAPOLIS/ST PAUL,US,UNITED STATES,44.8861,-93.2178,2025-12-30T20:40:00.000-06:00,2025-12-30T20:40:00.000-06:00,2025-12-30T20:40:00.000-06:00,PT1H55M,0,321,AIRBUS A321,DELTA AIR LINES INC.
1303,2025-12-31,20251231+DL+1303,SCHEDULED,DL,DELTA AIR LINES INC.,ATL->CLE->ATL,ATL,ATL,SCHEDULED,Scheduled,ATL,HARTSFIELD-JACKSON INTERNATIONAL AIRPORT,ATL,ATLANTA,US,UNITED STATES,33.6408,-84.4272,2025-12-31T10:10:00.000-05:00,2025-12-31T10:10:00.000-05:00,CLE,HOPKINS INTERNATIONAL AIRPORT,CLE,CLEVELAND,US,UNITED STATES,41.4119,-81.8481,2025-12-31T11:58:00.000-05:00,2025-12-31T11:58:00.000-05:00,2025-12-31T11:58:00.000-05:00,PT1H48M,0,320,AIRBUS A320,DELTA AIR LINES INC.
1303,2025-12-31,20251231+DL+1303,SCHEDULED,DL,DELTA AIR LINES INC.,ATL->CLE->ATL,ATL,ATL,SCHEDULED,Scheduled,CLE,HOPKINS INTERNATIONAL AIRPORT,CLE,CLEVELAND,US,UNITED STATES,41.4119,-81.8481,2025-12-31T13:00:00.000-05:00,2025-12-31T13:00:00.000-05:00,ATL,HARTSFIELD-JACKSON INTERNATIONAL AIRPORT,ATL,ATLANTA,US,UNITED STATES,33.6408,-84.4272,2025-12-31T14:59:00.000-05:00,2025-12-31T14:59:00.000-05:00,2025-12-31T14:59:00.000-05:00,PT1H59M,0,320,AIRBUS A320,DELTA AIR LINES INC.
1325,2025-12-31,20251231+DL+1325,SCHEDULED,DL,DELTA AIR LINES INC.,DTW->MSP,DTW,MSP,CANCELLED,Cancelled,ATL,HARTSFIELD-JACKSON INTERNATIONAL AIRPORT,ATL,ATLANTA,US,UNITED STATES,33.6408,-84.4272,2025-12-31T14:15:00.000-05:00,2025-12-31T14:15:00.000-05:00,TUL,TULSA INTERNATIONAL AIRPORT,TUL,TULSA,US,UNITED STATES,36.1978,-95.8897,2025-12-31T15:14:00.000-06:00,2025-12-31T15:14:00.000-06:00,2025-12-31T15:14:00.000-06:00,PT1H59M,0,717,BOEING 717-200,DELTA AIR LINES INC.
1325,2025-12-31,20251231+DL+1325,SCHEDULED,DL,DELTA AIR LINES INC.,DTW->MSP,DTW,MSP,SCHEDULED,Scheduled,DTW,METROPOLITAN WAYNE COUNTY AIRPORT,DTT,DETROIT,US,UNITED STATES,42.2186,-83.3486,2025-12-30T19:45:00.000-05:00,2025-12-30T19:45:00.000-05:00,MSP,MINNEAPOLIS INTERNATIONAL AIRPORT,MSP,MINNEAPOLIS/ST PAUL,US,UNITED STATES,44.8861,-93.2178,2025-12-30T20:44:00.000-06:00,2025-12-30T20:44:00.000-06:00,2025-12-30T20:44:00.000-06:00,PT1H59M,0,739,BOEING 737-900 PASSENGER,DELTA AIR LINES INC.
1418,2025-12-31,20251231+DL+1418,SCHEDULED,DL,DELTA AIR LINES INC.,MIA->JFK,MIA,JFK,CANCELLED,Cancelled,BTR,RYAN AIRPORT,BTR,BATON ROUGE,US,UNITED STATES,30.5317,-91.1506,2025-12-31T18:59:00.000-06:00,2025-12-31T18:59:00.000-06:00,ATL,HARTSFIELD-JACKSON INTERNATIONAL AIRPORT,ATL,ATLANTA,US,UNITED STATES,33.6408,-84.4272,2025-12-31T21:42:00.000-05:00,2025-12-31T21:42:00.000-05:00,2025-12-31T21:42:00.000-05:00,PT1H43M,0,717,BOEING 717-200,DELTA AIR LINES INC.
1418,2025-12-31,20251231+DL+1418,SCHEDULED,DL,DELTA AIR LINES INC.,MIA->JFK,MIA,JFK,CANCELLED,Cancelled,ATL,HARTSFIELD-JACKSON INTERNATIONAL AIRPORT,ATL,ATLANTA,US,UNITED STATES,33.6408,-84.4272,2025-12-30T19:45:00.000-05:00,2025-12-30T19:45:00.000-05:00,BTR,RYAN AIRPORT,BTR,BATON ROUGE,US,UNITED STATES,30.5317,-91.1506,2025-12-30T20:17:00.000-06:00,2025-12-30T20:17:00.000-06:00,2025-12-30T20:17:00.000-06:00,PT1H32M,0,717,BOEING 717-200,DELTA AIR LINES INC.
1418,2025-12-31,20251231+DL+1418,SCHEDULED,DL,DELTA AIR LINES INC.,MIA->JFK,MIA,JFK,SCHEDULED,Scheduled,MIA,MIAMI INTERNATIONAL AIRPORT,MIA,MIAMI,US,UNITED STATES,25.7925,-80.2861,2025-12-31T12:55:00.000-05:00,2025-12-31T12:55:00.000-05:00,JFK,JOHN F. KENNEDY INTERNATIONAL AIRPORT,NYC,NEW YORK,US,UNITED STATES,40.6386,-73.7769,2025-12-31T16:02:00.000-05:00,2025-12-31T16:02:00.000-05:00,2025-12-31T16:02:00.000-05:00,PT3H7M,0,739,BOEING 737-900 PASSENGER,DELTA AIR LINES INC.
2810,2025-12-31,20251231+DL+2810,SCHEDULED,DL,DELTA AIR LINES INC.,LGA->ORD->LGA,LGA,LGA,CANCELLED,Cancelled,ATL,HARTSFIELD-JACKSON INTERNATIONAL AIRPORT,ATL,ATLANTA,US,UNITED STATES,33.6408,-84.4272,2025-12-30T19:45:00.000-05:00,2025-12-30T19:45:00.000-05:00,BDL,BRADLEY INTERNATIONAL AIRPORT,HFD,HARTFORD,US,UNITED STATES,41.9386,-72.6833,2025-12-30T21:57:00.000-05:00,2025-12-30T21:57:00.000-05:00,2025-12-30T21:57:00.000-05:00,PT2H12M,0,739,BOEING 737-900 PASSENGER,DELTA AIR LINES INC.
2810,2025-12-31,20251231+DL+2810,SCHEDULED,DL,DELTA AIR LINES INC.,LGA->ORD->LGA,LGA,LGA,SCHEDULED,Scheduled,LGA,LA GUARDIA AIRPORT,NYC,NEW YORK,US,UNITED STATES,40.7794,-73.8758,2025-12-31T12:00:00.000-05:00,2025-12-31T12:00:00.000-05:00,ORD,O HARE INTERNATIONAL AIRPORT,CHI,CHICAGO,US,UNITED STATES,41.9781,-87.9061,2025-12-31T13:49:00.000-06:00,2025-12-31T13:49:00.000-06:00,2025-12-31T13:49:00.000-06:00,PT2H49M,0,223,AIRBUS A220-300 PASSENGER,DELTA AIR LINES INC.
2810,2025-12-31,20251231+DL+2810,SCHEDULED,DL,DELTA AIR LINES INC.,LGA->ORD->LGA,LGA,LGA,SCHEDULED,Scheduled,ORD,O HARE INTERNATIONAL AIRPORT,CHI,CHICAGO,US,UNITED STATES,41.9781,-87.9061,2025-12-31T14:30:00.000-06:00,2025-12-31T14:30:00.000-06:00,LGA,LA GUARDIA AIRPORT,NYC,NEW YORK,US,UNITED STATES,40.7794,-73.8758,2025-12-31T17:49:00.000-05:00,2025-12-31T17:49:00.000-05:00,2025-12-31T17:49:00.000-05:00,PT2H19M,0,223,AIRBUS A220-300 PASSENGER,DELTA AIR LINES INC.
5620,2025-12-31,20251231+DL+5620,SCHEDULED,DL,DELTA AIR LINES INC.,BNA->BOS,BNA,BOS,CANCELLED,Cancelled,BOS,EDWARD L. LOGAN INTERNATIONAL AIRPORT,BOS,BOSTON,US,UNITED STATES,42.365,-71.0053,2025-12-30T19:45:00.000-05:00,2025-12-30T19:45:00.000-05:00,CVG,NORTHERN KENTUCKY INTERNATIONAL AIRPORT,CVG,CINCINNATI,US,UNITED STATES,39.0478,-84.6686,2025-12-30T22:13:00.000-05:00,2025-12-30T22:13:00.000-05:00,2025-12-30T22:13:00.000-05:00,PT2H28M,0,E75,EMBRAER 175,REPUBLIC AIRLINE  INC.
5620,2025-12-31,20251231+DL+5620,SCHEDULED,DL,DELTA AIR LINES INC.,BNA->BOS,BNA,BOS,SCHEDULED,Scheduled,BNA,NASHVILLE INTERNATIONAL AIRPORT,BNA,NASHVILLE,US,UNITED STATES,36.1267,-86.6819,2025-12-31T12:35:00.000-06:00,2025-12-31T12:35:00.000-06:00,BOS,EDWARD L. LOGAN INTERNATIONAL AIRPORT,BOS,BOSTON,US,UNITED STATES,42.365,-71.0053,2025-12-31T16:12:00.000-05:00,2025-12-31T16:12:00.000-05:00,2025-12-31T16:12:00.000-05:00,PT2H37M,0,E75,EMBRAER 175,REPUBLIC AIRLINE  INC.
1640,2025-12-31,20251231+DL+1640,SCHEDULED,DL,DELTA AIR LINES INC.,DTW->DEN,DTW,DEN,CANCELLED,Cancelled,ATL,HARTSFIELD-JACKSON INTERNATIONAL AIRPORT,ATL,ATLANTA,US,UNITED STATES,33.6408,-84.4272,2025-12-31T12:40:00.000-05:00,2025-12-31T12:40:00.000-05:00,PNS,PENSACOLA INTERNATIONAL AIRPORT,PNS,PENSACOLA,US,UNITED STATES,30.4725,-87.1883,2025-12-31T12:49:00.000-06:00,2025-12-31T12:49:00.000-06:00,2025-12-31T12:49:00.000-06:00,PT1H9M,0,739,BOEING 737-900 PASSENGER,DELTA AIR LINES INC.
1640,2025-12-31,20251231+DL+1640,SCHEDULED,DL,DELTA AIR LINES INC.,DTW->DEN,DTW,DEN,CANCELLED,Cancelled,PNS,PENSACOLA INTERNATIONAL AIRPORT,PNS,PENSACOLA,US,UNITED STATES,30.4725,-87.1883,2025-12-31T13:59:00.000-06:00,2025-12-31T13:59:00.000-06:00,ATL,HARTSFIELD-JACKSON INTERNATIONAL AIRPORT,ATL,ATLANTA,US,UNITED STATES,33.6408,-84.4272,2025-12-31T16:16:00.000-05:00,2025-12-31T16:16:00.000-05:00,2025-12-31T16:16:00.000-05:00,PT1H17M,0,739,BOEING 737-900 PASSENGER,DELTA AIR LINES INC.
1640,2025-12-31,20251231+DL+1640,SCHEDULED,DL,DELTA AIR LINES INC.,DTW->DEN,DTW,DEN,CANCELLED,Cancelled,MSP,MINNEAPOLIS INTERNATIONAL AIRPORT,MSP,MINNEAPOLIS/ST PAUL,US,UNITED STATES,44.8861,-93.2178,2025-12-30T18:48:00.000-06:00,2025-12-30T18:48:00.000-06:00,FLL,FORT LAUDERDALE INTERNATIONAL AIRPORT,FLL,FORT LAUDERDALE,US,UNITED STATES,26.0742,-80.1517,2025-12-30T23:33:00.000-05:00,2025-12-30T23:33:00.000-05:00,2025-12-30T23:33:00.000-05:00,PT3H45M,0,321,AIRBUS A321,DELTA AIR LINES INC.
1640,2025-12-31,20251231+DL+1640,SCHEDULED,DL,DELTA AIR LINES INC.,DTW->DEN,DTW,DEN,SCHEDULED,Scheduled,DTW,METROPOLITAN WAYNE COUNTY AIRPORT,DTT,DETROIT,US,UNITED STATES,42.2186,-83.3486,2025-12-30T20:25:00.000-05:00,2025-12-30T20:25:00.000-05:00,DEN,DENVER INTERNATIONAL AIRPORT,DEN,DENVER,US,UNITED STATES,39.8547,-104.7181,2025-12-30T21:40:00.000-07:00,2025-12-30T21:40:00.000-07:00,2025-12-30T21:40:00.000-07:00,PT3H15M,0,321,AIRBUS A321,DELTA AIR LINES INC.
315,2025-12-31,20251231+DL+0315,SCHEDULED,DL,DELTA AIR LINES INC.,JFK->SLC,JFK,SLC,CANCELLED,Cancelled,BOS,EDWARD L. LOGAN INTERNATIONAL AIRPORT,BOS,BOSTON,US,UNITED STATES,42.365,-71.0053,2025-12-30T19:50:00.000-05:00,2025-12-30T19:50:00.000-05:00,FLL,FORT LAUDERDALE INTERNATIONAL AIRPORT,FLL,FORT LAUDERDALE,US,UNITED STATES,26.0742,-80.1517,2025-12-30T23:24:00.000-05:00,2025-12-30T23:24:00.000-05:00,2025-12-30T23:24:00.000-05:00,PT3H34M,0,738,BOEING 737-800 PASSENGER,DELTA AIR LINES INC.
315,2025-12-31,20251231+DL+0315,SCHEDULED,DL,DELTA AIR LINES INC.,JFK->SLC,JFK,SLC,SCHEDULED,Scheduled,JFK,JOHN F. KENNEDY INTERNATIONAL AIRPORT,NYC,NEW YORK,US,UNITED STATES,40.6386,-73.7769,2025-12-31T17:45:00.000-05:00,2025-12-31T17:45:00.000-05:00,SLC,SALT LAKE CITY INTERNATIONAL AIRPORT,SLC,SALT LAKE CITY,US,UNITED STATES,40.7842,-111.9669,2025-12-31T21:16:00.000-07:00,2025-12-31T21:16:00.000-07:00,2025-12-31T21:16:00.000-07:00,PT5H31M,0,32Q,AIRBUS A321NEO,DELTA AIR LINES INC.
681,2025-12-31,20251231+DL+0681,SCHEDULED,DL,DELTA AIR LINES INC.,MCO->MIA,MCO,MIA,CANCELLED,Cancelled,MIA,MIAMI INTERNATIONAL AIRPORT,MIA,MIAMI,US,UNITED STATES,25.7925,-80.2861,2025-12-30T19:50:00.000-05:00,2025-12-30T19:50:00.000-05:00,MCO,ORLANDO INTERNATIONAL AIRPORT,ORL,ORLANDO,US,UNITED STATES,28.4319,-81.3247,2025-12-30T21:10:00.000-05:00,2025-12-30T21:10:00.000-05:00,2025-12-30T21:10:00.000-05:00,PT1H20M,0,319,AIRBUS A319,DELTA AIR LINES INC.
681,2025-12-31,20251231+DL+0681,SCHEDULED,DL,DELTA AIR LINES INC.,MCO->MIA,MCO,MIA,SCHEDULED,Scheduled,MCO,ORLANDO INTERNATIONAL AIRPORT,ORL,ORLANDO,US,UNITED STATES,28.4319,-81.3247,2025-12-31T17:00:00.000-05:00,2025-12-31T17:00:00.000-05:00,MIA,MIAMI INTERNATIONAL AIRPORT,MIA,MIAMI,US,UNITED STATES,25.7925,-80.2861,2025-12-31T18:24:00.000-05:00,2025-12-31T18:24:00.000-05:00,2025-12-31T18:24:00.000-05:00,PT1H24M,0,319,AIRBUS A319,DELTA AIR LINES INC.
951,2025-12-31,20251231+DL+0951,SCHEDULED,DL,DELTA AIR LINES INC.,LAX->JFK,LAX,JFK,CANCELLED,Cancelled,MSP,MINNEAPOLIS INTERNATIONAL AIRPORT,MSP,MINNEAPOLIS/ST PAUL,US,UNITED STATES,44.8861,-93.2178,2025-12-30T18:50:00.000-06:00,2025-12-30T18:50:00.000-06:00,SAT,SAN ANTONIO INTERNATIONAL AIRPORT,SAT,SAN ANTONIO,US,UNITED STATES,29.5383,-98.4719,2025-12-30T22:05:00.000-06:00,2025-12-30T22:05:00.000-06:00,2025-12-30T22:05:00.000-06:00,PT3H15M,0,223,AIRBUS A220-300 PASSENGER,DELTA AIR LINES INC.
951,2025-12-31,20251231+DL+0951,SCHEDULED,DL,DELTA AIR LINES INC.,LAX->JFK,LAX,JFK,SCHEDULED,Scheduled,LAX,LOS ANGELES INTERNATIONAL AIRPORT,LAX,LOS ANGELES,US,UNITED STATES,33.9422,-118.4072,2025-12-31T11:05:00.000-08:00,2025-12-31T11:05:00.000-08:00,JFK,JOHN F. KENNEDY INTERNATIONAL AIRPORT,NYC,NEW YORK,US,UNITED STATES,40.6386,-73.7769,2025-12-31T19:39:00.000-05:00,2025-12-31T19:39:00.000-05:00,2025-12-31T19:39:00.000-05:00,PT5H34M,0,76W,BOEING 767-300 WINGLETS PASSENGER,DELTA AIR LINES INC.
1520,2025-12-31,20251231+DL+1520,SCHEDULED,DL,DELTA AIR LINES INC.,ATL->MEM,ATL,MEM,CANCELLED,Cancelled,DTW,METROPOLITAN WAYNE COUNTY AIRPORT,DTT,DETROIT,US,UNITED STATES,42.2186,-83.3486,2025-12-31T07:00:00.000-05:00,2025-12-31T07:00:00.000-05:00,ORD,O HARE INTERNATIONAL AIRPORT,CHI,CHICAGO,US,UNITED STATES,41.9781,-87.9061,2025-12-31T07:35:00.000-06:00,2025-12-31T07:35:00.000-06:00,2025-12-31T07:35:00.000-06:00,PT1H35M,0,717,BOEING 717-200,DELTA AIR LINES INC.
1520,2025-12-31,20251231+DL+1520,SCHEDULED,DL,DELTA AIR LINES INC.,ATL->MEM,ATL,MEM,CANCELLED,Cancelled,ORD,O HARE INTERNATIONAL AIRPORT,CHI,CHICAGO,US,UNITED STATES,41.9781,-87.9061,2025-12-31T08:55:00.000-06:00,2025-12-31T08:55:00.000-06:00,DTW,METROPOLITAN WAYNE COUNTY AIRPORT,DTT,DETROIT,US,UNITED STATES,42.2186,-83.3486,2025-12-31T11:18:00.000-05:00,2025-12-31T11:18:00.000-05:00,2025-12-31T11:18:00.000-05:00,PT1H23M,0,717,BOEING 717-200,DELTA AIR LINES INC.
1520,2025-12-31,20251231+DL+1520,SCHEDULED,DL,DELTA AIR LINES INC.,ATL->MEM,ATL,MEM,SCHEDULED,Scheduled,ATL,HARTSFIELD-JACKSON INTERNATIONAL AIRPORT,ATL,ATLANTA,US,UNITED STATES,33.6408,-84.4272,2025-12-30T19:50:00.000-05:00,2025-12-30T19:50:00.000-05:00,MEM,MEMPHIS INTERNATIONAL AIRPORT,MEM,MEMPHIS,US,UNITED STATES,35.0497,-89.9789,2025-12-30T20:12:00.000-06:00,2025-12-30T20:12:00.000-06:00,2025-12-30T20:12:00.000-06:00,PT1H22M,0,739,BOEING 737-900 PASSENGER,DELTA AIR LINES INC.
1712,2025-12-31,20251231+DL+1712,SCHEDULED,DL,DELTA AIR LINES INC.,ATL->LIT,ATL,LIT,CANCELLED,Cancelled,VPS,FT. WALTON BEACH AIRPORT,VPS,DESTIN/FT WALTON BEACH,US,UNITED STATES,30.4894,-86.5272,2025-12-31T07:45:00.000-06:00,2025-12-31T07:45:00.000-06:00,ATL,HARTSFIELD-JACKSON INTERNATIONAL AIRPORT,ATL,ATLANTA,US,UNITED STATES,33.6408,-84.4272,2025-12-31T10:06:00.000-05:00,2025-12-31T10:06:00.000-05:00,2025-12-31T10:06:00.000-05:00,PT1H21M,0,739,BOEING 737-900 PASSENGER,DELTA AIR LINES INC.
1712,2025-12-31,20251231+DL+1712,SCHEDULED,DL,DELTA AIR LINES INC.,ATL->LIT,ATL,LIT,SCHEDULED,Scheduled,ATL,HARTSFIELD-JACKSON INTERNATIONAL AIRPORT,ATL,ATLANTA,US,UNITED STATES,33.6408,-84.4272,2025-12-30T19:50:00.000-05:00,2025-12-30T19:50:00.000-05:00,LIT,LITTLE ROCK CLINTON NATIONAL AIRPORT,LIT,LITTLE ROCK,US,UNITED STATES,34.7292,-92.2344,2025-12-30T20:27:00.000-06:00,2025-12-30T20:27:00.000-06:00,2025-12-30T20:27:00.000-06:00,PT1H37M,0,717,BOEING 717-200,DELTA AIR LINES INC.
3096,2025-12-31,20251231+DL+3096,CANCELLED,DL,DELTA AIR LINES INC.,ATL->LEX->ATL,ATL,ATL,CANCELLED,Cancelled,ATL,HARTSFIELD-JACKSON INTERNATIONAL AIRPORT,ATL,ATLANTA,US,UNITED STATES,33.6408,-84.4272,2025-12-31T11:22:00.000-05:00,2025-12-31T11:22:00.000-05:00,LEX,BLUE GRASS AIRPORT,LEX,LEXINGTON,US,UNITED STATES,38.0397,-84.6022,2025-12-31T12:36:00.000-05:00,2025-12-31T12:36:00.000-05:00,2025-12-31T12:36:00.000-05:00,PT1H14M,0,738,BOEING 737-800 PASSENGER,DELTA AIR LINES INC.
3096,2025-12-31,20251231+DL+3096,CANCELLED,DL,DELTA AIR LINES INC.,ATL->LEX->ATL,ATL,ATL,CANCELLED,Cancelled,LEX,BLUE GRASS AIRPORT,LEX,LEXINGTON,US,UNITED STATES,38.0397,-84.6022,2025-12-31T13:30:00.000-05:00,2025-12-31T13:30:00.000-05:00,ATL,HARTSFIELD-JACKSON INTERNATIONAL AIRPORT,ATL,ATLANTA,US,UNITED STATES,33.6408,-84.4272,2025-12-31T15:05:00.000-05:00,2025-12-31T15:05:00.000-05:00,2025-12-31T15:05:00.000-05:00,PT1H35M,0,738,BOEING 737-800 PASSENGER,DELTA AIR LINES INC.
3096,2025-12-31,20251231+DL+3096,CANCELLED,DL,DELTA AIR LINES INC.,ATL->LEX->ATL,ATL,ATL,CANCELLED,Cancelled,MDW,MIDWAY INTERNATIONAL AIRPORT,CHI,CHICAGO,US,UNITED STATES,41.785,-87.7519,2025-12-30T18:50:00.000-06:00,2025-12-30T18:50:00.000-06:00,ATL,HARTSFIELD-JACKSON INTERNATIONAL AIRPORT,ATL,ATLANTA,US,UNITED STATES,33.6408,-84.4272,2025-12-30T21:40:00.000-05:00,2025-12-30T21:40:00.000-05:00,2025-12-30T21:40:00.000-05:00,PT1H50M,0,717,BOEING 717-200,DELTA AIR LINES INC.
3096,2025-12-31,20251231+DL+3096,CANCELLED,DL,DELTA AIR LINES INC.,ATL->LEX->ATL,ATL,ATL,CANCELLED,Cancelled,ATL,HARTSFIELD-JACKSON INTERNATIONAL AIRPORT,ATL,ATLANTA,US,UNITED STATES,33.6408,-84.4272,2025-12-31T17:05:00.000-05:00,2025-12-31T17:05:00.000-05:00,MDW,MIDWAY INTERNATIONAL AIRPORT,CHI,CHICAGO,US,UNITED STATES,41.785,-87.7519,2025-12-31T17:59:00.000-06:00,2025-12-31T17:59:00.000-06:00,2025-12-31T17:59:00.000-06:00,PT1H54M,0,717,BOEING 717-200,DELTA AIR LINES INC.
5605,2025-12-31,20251231+DL+5605,SCHEDULED,DL,DELTA AIR LINES INC.,BOS->MCI->BOS,BOS,BOS,CANCELLED,Cancelled,BOS,EDWARD L. LOGAN INTERNATIONAL AIRPORT,BOS,BOSTON,US,UNITED STATES,42.365,-71.0053,2025-12-30T19:50:00.000-05:00,2025-12-30T19:50:00.000-05:00,BNA,NASHVILLE INTERNATIONAL AIRPORT,BNA,NASHVILLE,US,UNITED STATES,36.1267,-86.6819,2025-12-30T21:58:00.000-06:00,2025-12-30T21:58:00.000-06:00,2025-12-30T21:58:00.000-06:00,PT3H8M,0,E75,EMBRAER 175,REPUBLIC AIRLINE  INC.
5605,2025-12-31,20251231+DL+5605,SCHEDULED,DL,DELTA AIR LINES INC.,BOS->MCI->BOS,BOS,BOS,SCHEDULED,Scheduled,BOS,EDWARD L. LOGAN INTERNATIONAL AIRPORT,BOS,BOSTON,US,UNITED STATES,42.365,-71.0053,2025-12-31T16:10:00.000-05:00,2025-12-31T16:10:00.000-05:00,MCI,KANSAS CITY INTERNATIONAL AIRPORT,MKC,KANSAS CITY,US,UNITED STATES,39.2928,-94.7267,2025-12-31T18:58:00.000-06:00,2025-12-31T18:58:00.000-06:00,2025-12-31T18:58:00.000-06:00,PT3H48M,0,E75,EMBRAER 175,REPUBLIC AIRLINE  INC.
5605,2025-12-31,20251231+DL+5605,SCHEDULED,DL,DELTA AIR LINES INC.,BOS->MCI->BOS,BOS,BOS,SCHEDULED,Scheduled,MCI,KANSAS CITY INTERNATIONAL AIRPORT,MKC,KANSAS CITY,US,UNITED STATES,39.2928,-94.7267,2025-12-31T19:40:00.000-06:00,2025-12-31T19:40:00.000-06:00,BOS,EDWARD L. LOGAN INTERNATIONAL AIRPORT,BOS,BOSTON,US,UNITED STATES,42.365,-71.0053,2025-12-31T23:46:00.000-05:00,2025-12-31T23:46:00.000-05:00,2025-12-31T23:46:00.000-05:00,PT3H6M,0,E75,EMBRAER 175,REPUBLIC AIRLINE  INC.
5214,2025-12-31,20251231+DL+5214,SCHEDULED,DL,DELTA AIR LINES INC.,MSP->IND->MSP,MSP,MSP,CANCELLED,Cancelled,MSN,DANE COUNTY REGIONAL AIRPORT,MSN,MADISON,US,UNITED STATES,43.0833,-89.3667,2025-12-31T17:50:00.000-06:00,2025-12-31T17:50:00.000-06:00,DTW,METROPOLITAN WAYNE COUNTY AIRPORT,DTT,DETROIT,US,UNITED STATES,42.2186,-83.3486,2025-12-31T20:12:00.000-05:00,2025-12-31T20:12:00.000-05:00,2025-12-31T20:12:00.000-05:00,PT1H22M,0,CR9,CANADAIR REGIONAL JET 900 AND CHALLENGER 890,ENDEAVOR AIR
5214,2025-12-31,20251231+DL+5214,SCHEDULED,DL,DELTA AIR LINES INC.,MSP->IND->MSP,MSP,MSP,CANCELLED,Cancelled,ATL,HARTSFIELD-JACKSON INTERNATIONAL AIRPORT,ATL,ATLANTA,US,UNITED STATES,33.6408,-84.4272,2025-12-30T19:52:00.000-05:00,2025-12-30T19:52:00.000-05:00,AEX,ALEXANDRIA INTERNATIONAL AIRPORT,AEX,ALEXANDRIA,US,UNITED STATES,31.3333,-92.55,2025-12-30T20:45:00.000-06:00,2025-12-30T20:45:00.000-06:00,2025-12-30T20:45:00.000-06:00,PT1H53M,0,CR9,CANADAIR REGIONAL JET 900 AND CHALLENGER 890,ENDEAVOR AIR
5214,2025-12-31,20251231+DL+5214,SCHEDULED,DL,DELTA AIR LINES INC.,MSP->IND->MSP,MSP,MSP,SCHEDULED,Scheduled,MSP,MINNEAPOLIS INTERNATIONAL AIRPORT,MSP,MINNEAPOLIS/ST PAUL,US,UNITED STATES,44.8861,-93.2178,2025-12-31T13:18:00.000-06:00,2025-12-31T13:18:00.000-06:00,IND,INDIANAPOLIS INTERNATIONAL AIRPORT,IND,INDIANAPOLIS,US,UNITED STATES,39.7289,-86.2817,2025-12-31T16:01:00.000-05:00,2025-12-31T16:01:00.000-05:00,2025-12-31T16:01:00.000-05:00,PT1H43M,0,CR9,CANADAIR REGIONAL JET 900 AND CHALLENGER 890,ENDEAVOR AIR
5214,2025-12-31,20251231+DL+5214,SCHEDULED,DL,DELTA AIR LINES INC.,MSP->IND->MSP,MSP,MSP,SCHEDULED,Scheduled,IND,INDIANAPOLIS INTERNATIONAL AIRPORT,IND,INDIANAPOLIS,US,UNITED STATES,39.7289,-86.2817,2025-12-31T16:35:00.000-05:00,2025-12-31T16:35:00.000-05:00,MSP,MINNEAPOLIS INTERNATIONAL AIRPORT,MSP,MINNEAPOLIS/ST PAUL,US,UNITED STATES,44.8861,-93.2178,2025-12-31T17:27:00.000-06:00,2025-12-31T17:27:00.000-06:00,2025-12-31T17:27:00.000-06:00,PT1H52M,0,CR9,CANADAIR REGIONAL JET 900 AND CHALLENGER 890,ENDEAVOR AIR
1515,2025-12-31,20251231+DL+1515,SCHEDULED,DL,DELTA AIR LINES INC.,ATL->GSO->ATL,ATL,ATL,CANCELLED,Cancelled,SLC,SALT LAKE CITY INTERNATIONAL AIRPORT,SLC,SALT LAKE CITY,US,UNITED STATES,40.7842,-111.9669,2025-12-30T17:54:00.000-07:00,2025-12-30T17:54:00.000-07:00,BOI,BOISE AIR TERMINAL (GOWEN FIELD),BOI,BOISE,US,UNITED STATES,43.5653,-116.225,2025-12-30T19:06:00.000-07:00,2025-12-30T19:06:00.000-07:00,2025-12-30T19:06:00.000-07:00,PT1H12M,0,223,AIRBUS A220-300 PASSENGER,DELTA AIR LINES INC.
1515,2025-12-31,20251231+DL+1515,SCHEDULED,DL,DELTA AIR LINES INC.,ATL->GSO->ATL,ATL,ATL,CANCELLED,Cancelled,BOI,BOISE AIR TERMINAL (GOWEN FIELD),BOI,BOISE,US,UNITED STATES,43.5653,-116.225,2025-12-30T19:59:00.000-07:00,2025-12-30T19:59:00.000-07:00,SLC,SALT LAKE CITY INTERNATIONAL AIRPORT,SLC,SALT LAKE CITY,US,UNITED STATES,40.7842,-111.9669,2025-12-30T21:14:00.000-07:00,2025-12-30T21:14:00.000-07:00,2025-12-30T21:14:00.000-07:00,PT1H15M,0,223,AIRBUS A220-300 PASSENGER,DELTA AIR LINES INC.
1515,2025-12-31,20251231+DL+1515,SCHEDULED,DL,DELTA AIR LINES INC.,ATL->GSO->ATL,ATL,ATL,SCHEDULED,Scheduled,ATL,HARTSFIELD-JACKSON INTERNATIONAL AIRPORT,ATL,ATLANTA,US,UNITED STATES,33.6408,-84.4272,2025-12-31T08:10:00.000-05:00,2025-12-31T08:10:00.000-05:00,GSO,PIEDMONT TRIAD INTERNATIONAL AIRPORT,GSO,GREENSBORO/HIGH POINT,US,UNITED STATES,36.0919,-79.9428,2025-12-31T09:26:00.000-05:00,2025-12-31T09:26:00.000-05:00,2025-12-31T09:26:00.000-05:00,PT1H16M,0,717,BOEING 717-200,DELTA AIR LINES INC.
1515,2025-12-31,20251231+DL+1515,SCHEDULED,DL,DELTA AIR LINES INC.,ATL->GSO->ATL,ATL,ATL,SCHEDULED,Scheduled,GSO,PIEDMONT TRIAD INTERNATIONAL AIRPORT,GSO,GREENSBORO/HIGH POINT,US,UNITED STATES,36.0919,-79.9428,2025-12-31T10:15:00.000-05:00,2025-12-31T10:15:00.000-05:00,ATL,HARTSFIELD-JACKSON INTERNATIONAL AIRPORT,ATL,ATLANTA,US,UNITED STATES,33.6408,-84.4272,2025-12-31T11:39:00.000-05:00,2025-12-31T11:39:00.000-05:00,2025-12-31T11:39:00.000-05:00,PT1H24M,0,717,BOEING 717-200,DELTA AIR LINES INC.
1732,2025-12-31,20251231+DL+1732,SCHEDULED,DL,DELTA AIR LINES INC.,ATL->DAB,ATL,DAB,CANCELLED,Cancelled,ATL,HARTSFIELD-JACKSON INTERNATIONAL AIRPORT,ATL,ATLANTA,US,UNITED STATES,33.6408,-84.4272,2025-12-31T17:47:00.000-05:00,2025-12-31T17:47:00.000-05:00,GSP,GREENVILLE-SPARTANBURG INTERNATIONAL AIRPORT,GSP,GREENVILLE/SPARTANBURG,US,UNITED STATES,34.905,-82.21,2025-12-31T18:47:00.000-05:00,2025-12-31T18:47:00.000-05:00,2025-12-31T18:47:00.000-05:00,PT1H,0,739,BOEING 737-900 PASSENGER,DELTA AIR LINES INC.
1732,2025-12-31,20251231+DL+1732,SCHEDULED,DL,DELTA AIR LINES INC.,ATL->DAB,ATL,DAB,CANCELLED,Cancelled,SAT,SAN ANTONIO INTERNATIONAL AIRPORT,SAT,SAN ANTONIO,US,UNITED STATES,29.5383,-98.4719,2025-12-31T14:00:00.000-06:00,2025-12-31T14:00:00.000-06:00,MSP,MINNEAPOLIS INTERNATIONAL AIRPORT,MSP,MINNEAPOLIS/ST PAUL,US,UNITED STATES,44.8861,-93.2178,2025-12-31T16:52:00.000-06:00,2025-12-31T16:52:00.000-06:00,2025-12-31T16:52:00.000-06:00,PT2H52M,0,320,AIRBUS A320,DELTA AIR LINES INC.
1732,2025-12-31,20251231+DL+1732,SCHEDULED,DL,DELTA AIR LINES INC.,ATL->DAB,ATL,DAB,CANCELLED,Cancelled,RDU,RALEIGH/DURHAM INTERNATIONAL AIRPORT,RDU,RALEIGH/DURHAM,US,UNITED STATES,35.8753,-78.7819,2025-12-31T11:50:00.000-05:00,2025-12-31T11:50:00.000-05:00,BOS,EDWARD L. LOGAN INTERNATIONAL AIRPORT,BOS,BOSTON,US,UNITED STATES,42.365,-71.0053,2025-12-31T13:50:00.000-05:00,2025-12-31T13:50:00.000-05:00,2025-12-31T13:50:00.000-05:00,PT2H,0,221,AIRBUS A220-100 PASSENGER,DELTA AIR LINES INC.
1732,2025-12-31,20251231+DL+1732,SCHEDULED,DL,DELTA AIR LINES INC.,ATL->DAB,ATL,DAB,CANCELLED,Cancelled,JFK,JOHN F. KENNEDY INTERNATIONAL AIRPORT,NYC,NEW YORK,US,UNITED STATES,40.6386,-73.7769,2025-12-30T21:30:00.000-05:00,2025-12-30T21:30:00.000-05:00,SFO,SAN FRANCISCO INTERNATIONAL AIRPORT,SFO,SAN FRANCISCO,US,UNITED STATES,37.6194,-122.3728,2025-12-31T01:25:00.000-08:00,2025-12-31T01:25:00.000-08:00,2025-12-31T01:25:00.000-08:00,PT6H55M,0,75W,BOEING 757-200 WINGLETS PASSENGER,DELTA AIR LINES INC.
1732,2025-12-31,20251231+DL+1732,SCHEDULED,DL,DELTA AIR LINES INC.,ATL->DAB,ATL,DAB,CANCELLED,Cancelled,GSP,GREENVILLE-SPARTANBURG INTERNATIONAL AIRPORT,GSP,GREENVILLE/SPARTANBURG,US,UNITED STATES,34.905,-82.21,2025-12-31T19:50:00.000-05:00,2025-12-31T19:50:00.000-05:00,ATL,HARTSFIELD-JACKSON INTERNATIONAL AIRPORT,ATL,ATLANTA,US,UNITED STATES,33.6408,-84.4272,2025-12-31T20:56:00.000-05:00,2025-12-31T20:56:00.000-05:00,2025-12-31T20:56:00.000-05:00,PT1H6M,0,739,BOEING 737-900 PASSENGER,DELTA AIR LINES INC.
1732,2025-12-31,20251231+DL+1732,SCHEDULED,DL,DELTA AIR LINES INC.,ATL->DAB,ATL,DAB,SCHEDULED,Scheduled,ATL,HARTSFIELD-JACKSON INTERNATIONAL AIRPORT,ATL,ATLANTA,US,UNITED STATES,33.6408,-84.4272,2025-12-30T19:54:00.000-05:00,2025-12-30T19:54:00.000-05:00,DAB,DAYTONA BEACH INTERNATIONAL AIRPORT,DAB,DAYTONA BEACH,US,UNITED STATES,29.1825,-81.0528,2025-12-30T21:13:00.000-05:00,2025-12-30T21:13:00.000-05:00,2025-12-30T21:13:00.000-05:00,PT1H19M,0,717,BOEING 717-200,DELTA AIR LINES INC.
5280,2025-12-31,20251231+DL+5280,SCHEDULED,DL,DELTA AIR LINES INC.,DTW->TVC->DTW,DTW,DTW,CANCELLED,Cancelled,ATL,HARTSFIELD-JACKSON INTERNATIONAL AIRPORT,ATL,ATLANTA,US,UNITED STATES,33.6408,-84.4272,2025-12-30T19:54:00.000-05:00,2025-12-30T19:54:00.000-05:00,AGS,AUGUSTA REGIONAL (BUSH FIELD) AIRPORT,AGS,AUGUSTA,US,UNITED STATES,33.3664,-81.9669,2025-12-30T20:54:00.000-05:00,2025-12-30T20:54:00.000-05:00,2025-12-30T20:54:00.000-05:00,PT1H,0,CR9,CANADAIR REGIONAL JET 900 AND CHALLENGER 890,ENDEAVOR AIR
